% program   : RTKPOST-QT ver.2.4.3 b27
% inp file  : /home/prof/Projet_geodesieSGRUEL/21_03_2018/sxj1052z.18o
% inp file  : /home/prof/Projet_geodesieSGRUEL/52/bogu052z.18o
% inp file  : /home/prof/Projet_geodesieSGRUEL/52/bogu052z.18n
% inp file  : /home/prof/Projet_geodesieSGRUEL/21_03_2018/brdc052z.18n
% obs start : 2018/02/21 08:00:00.0 GPST (week1989 288000.0s)
% obs end   : 2018/02/21 16:59:30.0 GPST (week1989 320370.0s)
% pos mode  : static
% freqs     : L1+L2
% solution  : forward
% elev mask : 15.0 deg
% dynamics  : off
% tidecorr  : off
% ionos opt : broadcast
% tropo opt : saastamoinen
% ephemeris : broadcast
% amb res   : continuous
% val thres : 3.0
% antenna1  :                       ( 0.0000  0.0000  0.0000)
% antenna2  : AERAT1675_120   SPKE  ( 0.0000  0.0000  0.0720)
% ref pos   :  4151675.3898     80688.5519   4825309.5977
%
% (x/y/z-ecef=WGS84,Q=1:fix,2:float,3:sbas,4:dgps,5:single,6:ppp,ns=# of satellites)
%  GPST                      x-ecef(m)      y-ecef(m)      z-ecef(m)   Q  ns   sdx(m)   sdy(m)   sdz(m)  sdxy(m)  sdyz(m)  sdzx(m) age(s)  ratio
2018/02/21 08:00:00.000   4208047.6128    228666.9775   4771795.1876   2   7   0.9281   0.4344   0.9752  -0.1660  -0.2155   0.8223   0.00    1.0
2018/02/21 08:00:30.000   4208047.6285    228666.9545   4771794.9843   2   7   0.5778   0.3044   0.5709  -0.0263  -0.1031   0.4749   0.00    1.0
2018/02/21 08:01:00.000   4208047.6184    228667.0429   4771795.1016   2   7   0.4116   0.2451   0.3768   0.0828  -0.0345   0.3079   0.00    1.0
2018/02/21 08:01:30.000   4208047.6323    228667.1047   4771795.2116   2   7   0.3157   0.2091   0.2681   0.0954   0.0394   0.2154   0.00    1.0
2018/02/21 08:02:00.000   4208047.4810    228667.1305   4771795.1934   2   7   0.2541   0.1842   0.2016   0.0977   0.0476   0.1599   0.00    1.1
2018/02/21 08:02:30.000   4208047.5083    228667.1583   4771795.1869   2   7   0.2115   0.1654   0.1581   0.0962   0.0482   0.1246   0.00    1.1
2018/02/21 08:03:00.000   4208047.5231    228667.1431   4771795.1581   2   7   0.1805   0.1506   0.1280   0.0932   0.0466   0.1007   0.00    1.2
2018/02/21 08:03:30.000   4208047.4994    228667.1128   4771795.1173   2   7   0.1570   0.1385   0.1062   0.0896   0.0444   0.0839   0.00    1.3
2018/02/21 08:04:00.000   4208047.5246    228667.1263   4771795.0911   2   7   0.1386   0.1282   0.0900   0.0857   0.0420   0.0716   0.00    1.4
2018/02/21 08:04:30.000   4208047.5440    228667.1370   4771795.0616   2   7   0.1239   0.1194   0.0775   0.0818   0.0396   0.0623   0.00    1.5
2018/02/21 08:05:00.000   4208047.5696    228667.1527   4771795.0460   2   7   0.1119   0.1116   0.0676   0.0779   0.0374   0.0550   0.00    1.6
2018/02/21 08:05:30.000   4208047.6076    228667.1439   4771795.0476   2   7   0.1019   0.1047   0.0597   0.0742   0.0353   0.0492   0.00    1.7
2018/02/21 08:06:00.000   4208047.5863    228667.0817   4771795.0281   2   7   0.0934   0.0985   0.0532   0.0706   0.0333   0.0445   0.00    1.8
2018/02/21 08:06:30.000   4208047.5706    228667.0168   4771795.0327   2   7   0.0861   0.0928   0.0478   0.0672   0.0315   0.0405   0.00    2.0
2018/02/21 08:07:00.000   4208047.5605    228666.9658   4771795.0501   2   7   0.0797   0.0877   0.0433   0.0640   0.0298   0.0372   0.00    2.1
2018/02/21 08:07:30.000   4208047.5385    228666.9113   4771795.0774   2   7   0.0742   0.0830   0.0394   0.0609   0.0283   0.0343   0.00    2.4
2018/02/21 08:08:00.000   4208047.5326    228666.8561   4771795.0918   2   7   0.0693   0.0786   0.0361   0.0580   0.0268   0.0318   0.00    2.5
2018/02/21 08:08:30.000   4208047.5113    228666.8126   4771795.0968   2   7   0.0649   0.0746   0.0332   0.0553   0.0255   0.0296   0.00    2.7
2018/02/21 08:09:00.000   4208047.4971    228666.7750   4771795.1040   2   7   0.0610   0.0709   0.0307   0.0527   0.0242   0.0277   0.00    2.9
2018/02/21 08:09:30.000   4208047.7321    228667.1265   4771795.3575   1   7   0.0021   0.0010   0.0023  -0.0004  -0.0006   0.0019   0.00    3.1
2018/02/21 08:10:00.000   4208047.7346    228667.1263   4771795.3590   1   7   0.0021   0.0010   0.0023  -0.0004  -0.0005   0.0019   0.00    3.2
2018/02/21 08:10:30.000   4208047.7374    228667.1261   4771795.3604   1   7   0.0020   0.0009   0.0022  -0.0004  -0.0005   0.0019   0.00    3.2
2018/02/21 08:11:00.000   4208047.7406    228667.1260   4771795.3621   1   7   0.0020   0.0009   0.0022  -0.0004  -0.0005   0.0018   0.00    3.1
2018/02/21 08:11:30.000   4208047.2267    228666.2900   4771795.0650   2   7   0.0461   0.0557   0.0218   0.0418   0.0190   0.0206   0.00    2.9
2018/02/21 08:12:00.000   4208047.1387    228666.1388   4771795.0521   2   7   0.0438   0.0532   0.0206   0.0400   0.0182   0.0195   0.00    2.7
2018/02/21 08:12:30.000   4208047.0476    228665.9841   4771795.0312   2   7   0.0417   0.0509   0.0194   0.0383   0.0174   0.0185   0.00    2.3
2018/02/21 08:13:00.000   4208046.9641    228665.8489   4771795.0138   2   7   0.0397   0.0487   0.0184   0.0367   0.0166   0.0176   0.00    2.1
2018/02/21 08:13:30.000   4208046.8981    228665.7444   4771795.0086   2   7   0.0379   0.0467   0.0174   0.0351   0.0159   0.0168   0.00    1.9
2018/02/21 08:14:00.000   4208046.8520    228665.6916   4771795.0263   2   7   0.0362   0.0448   0.0165   0.0337   0.0152   0.0160   0.00    1.7
2018/02/21 08:14:30.000   4208046.8236    228665.6748   4771795.0556   2   7   0.0346   0.0429   0.0157   0.0323   0.0146   0.0153   0.00    1.6
2018/02/21 08:15:00.000   4208046.8092    228665.6727   4771795.0848   2   7   0.0331   0.0412   0.0150   0.0310   0.0140   0.0146   0.00    1.5
2018/02/21 08:15:30.000   4208046.7975    228665.6746   4771795.1079   2   7   0.0318   0.0396   0.0143   0.0298   0.0134   0.0140   0.00    1.5
2018/02/21 08:16:00.000   4208046.7847    228665.6814   4771795.1231   2   7   0.0305   0.0381   0.0137   0.0286   0.0129   0.0134   0.00    1.4
2018/02/21 08:16:30.000   4208046.7752    228665.6949   4771795.1375   2   7   0.0292   0.0367   0.0131   0.0275   0.0124   0.0129   0.00    1.3
2018/02/21 08:17:00.000   4208046.7733    228665.7230   4771795.1581   2   7   0.0281   0.0353   0.0125   0.0265   0.0119   0.0123   0.00    1.3
2018/02/21 08:17:30.000   4208046.7687    228665.7422   4771795.1723   2   7   0.0270   0.0340   0.0120   0.0255   0.0115   0.0119   0.00    1.2
2018/02/21 08:18:00.000   4208046.7644    228665.7559   4771795.1774   2   7   0.0260   0.0328   0.0115   0.0246   0.0111   0.0114   0.00    1.2
2018/02/21 08:18:30.000   4208046.7595    228665.7643   4771795.1780   2   7   0.0251   0.0316   0.0111   0.0237   0.0107   0.0110   0.00    1.1
2018/02/21 08:19:00.000   4208046.7478    228665.7600   4771795.1681   2   7   0.0242   0.0305   0.0107   0.0228   0.0103   0.0106   0.00    1.1
2018/02/21 08:19:30.000   4208046.7432    228665.7592   4771795.1613   2   7   0.0233   0.0295   0.0103   0.0220   0.0099   0.0102   0.00    1.0
2018/02/21 08:20:00.000   4208046.7389    228665.7606   4771795.1531   2   7   0.0225   0.0285   0.0099   0.0213   0.0096   0.0098   0.00    1.1
2018/02/21 08:20:30.000   4208046.7303    228665.7531   4771795.1411   2   7   0.0217   0.0276   0.0096   0.0205   0.0092   0.0095   0.00    1.1
2018/02/21 08:21:00.000   4208046.7245    228665.7506   4771795.1297   2   7   0.0210   0.0267   0.0092   0.0198   0.0089   0.0092   0.00    1.2
2018/02/21 08:21:30.000   4208046.7240    228665.7560   4771795.1226   2   7   0.0203   0.0258   0.0089   0.0192   0.0086   0.0088   0.00    1.2
2018/02/21 08:22:00.000   4208046.7270    228665.7635   4771795.1176   2   7   0.0196   0.0250   0.0086   0.0186   0.0084   0.0086   0.00    1.2
2018/02/21 08:22:30.000   4208046.7302    228665.7739   4771795.1137   2   7   0.0190   0.0242   0.0084   0.0180   0.0081   0.0083   0.00    1.2
2018/02/21 08:23:00.000   4208046.7413    228665.7994   4771795.1153   2   7   0.0184   0.0235   0.0081   0.0174   0.0078   0.0080   0.00    1.2
2018/02/21 08:23:30.000   4208046.7525    228665.8289   4771795.1183   2   7   0.0179   0.0228   0.0078   0.0168   0.0076   0.0078   0.00    1.2
2018/02/21 08:24:00.000   4208046.7617    228665.8526   4771795.1230   2   7   0.0173   0.0221   0.0076   0.0163   0.0073   0.0075   0.00    1.2
2018/02/21 08:24:30.000   4208046.7731    228665.8820   4771795.1302   2   7   0.0168   0.0215   0.0074   0.0158   0.0071   0.0073   0.00    1.2
2018/02/21 08:25:00.000   4208046.7901    228665.9195   4771795.1399   2   7   0.0163   0.0209   0.0072   0.0153   0.0069   0.0071   0.00    1.2
2018/02/21 08:25:30.000   4208046.8063    228665.9523   4771795.1521   2   7   0.0159   0.0203   0.0070   0.0149   0.0067   0.0069   0.00    1.2
2018/02/21 08:26:00.000   4208046.8214    228665.9819   4771795.1627   2   7   0.0154   0.0197   0.0068   0.0144   0.0065   0.0067   0.00    1.2
2018/02/21 08:26:30.000   4208046.8387    228666.0097   4771795.1729   2   7   0.0150   0.0192   0.0066   0.0140   0.0063   0.0065   0.00    1.2
2018/02/21 08:27:00.000   4208046.8538    228666.0345   4771795.1833   2   7   0.0146   0.0187   0.0064   0.0136   0.0061   0.0063   0.00    1.2
2018/02/21 08:27:30.000   4208046.8703    228666.0613   4771795.1941   2   7   0.0142   0.0182   0.0063   0.0132   0.0060   0.0061   0.00    1.2
2018/02/21 08:28:00.000   4208046.8838    228666.0832   4771795.2030   2   7   0.0138   0.0177   0.0061   0.0129   0.0058   0.0060   0.00    1.3
2018/02/21 08:28:30.000   4208046.8965    228666.1067   4771795.2114   2   7   0.0134   0.0173   0.0059   0.0125   0.0056   0.0058   0.00    1.3
2018/02/21 08:29:00.000   4208046.9089    228666.1275   4771795.2204   2   7   0.0131   0.0169   0.0058   0.0122   0.0055   0.0057   0.00    1.3
2018/02/21 08:29:30.000   4208046.9197    228666.1458   4771795.2284   2   7   0.0128   0.0164   0.0057   0.0118   0.0053   0.0055   0.00    1.3
2018/02/21 08:30:00.000   4208046.9299    228666.1626   4771795.2358   2   7   0.0124   0.0160   0.0055   0.0115   0.0052   0.0054   0.00    1.3
2018/02/21 08:30:30.000   4208046.9377    228666.1762   4771795.2419   2   7   0.0121   0.0157   0.0054   0.0112   0.0051   0.0052   0.00    1.4
2018/02/21 08:31:00.000   4208046.9431    228666.1855   4771795.2471   2   7   0.0118   0.0153   0.0053   0.0109   0.0049   0.0051   0.00    1.4
2018/02/21 08:31:30.000   4208046.9480    228666.1939   4771795.2507   2   7   0.0115   0.0149   0.0051   0.0107   0.0048   0.0050   0.00    1.4
2018/02/21 08:32:00.000   4208046.9519    228666.2013   4771795.2525   2   7   0.0113   0.0146   0.0050   0.0104   0.0047   0.0049   0.00    1.3
2018/02/21 08:32:30.000   4208046.9565    228666.2108   4771795.2537   2   7   0.0110   0.0143   0.0049   0.0101   0.0046   0.0047   0.00    1.3
2018/02/21 08:33:00.000   4208046.9612    228666.2199   4771795.2560   2   7   0.0108   0.0139   0.0048   0.0099   0.0045   0.0046   0.00    1.3
2018/02/21 08:33:30.000   4208046.9672    228666.2294   4771795.2590   2   7   0.0105   0.0136   0.0047   0.0096   0.0043   0.0045   0.00    1.3
2018/02/21 08:34:00.000   4208046.9733    228666.2382   4771795.2618   2   7   0.0103   0.0133   0.0046   0.0094   0.0042   0.0044   0.00    1.3
2018/02/21 08:34:30.000   4208046.9797    228666.2460   4771795.2641   2   7   0.0100   0.0131   0.0045   0.0092   0.0041   0.0043   0.00    1.2
2018/02/21 08:35:00.000   4208046.9852    228666.2515   4771795.2660   2   7   0.0098   0.0128   0.0044   0.0089   0.0040   0.0042   0.00    1.2
2018/02/21 08:35:30.000   4208046.9912    228666.2566   4771795.2674   2   7   0.0096   0.0125   0.0043   0.0087   0.0040   0.0041   0.00    1.2
2018/02/21 08:36:00.000   4208046.9962    228666.2597   4771795.2688   2   7   0.0094   0.0123   0.0043   0.0085   0.0039   0.0040   0.00    1.2
2018/02/21 08:36:30.000   4208047.0006    228666.2613   4771795.2703   2   7   0.0092   0.0120   0.0042   0.0083   0.0038   0.0040   0.00    1.2
2018/02/21 08:37:00.000   4208047.0052    228666.2624   4771795.2729   2   7   0.0090   0.0118   0.0041   0.0081   0.0037   0.0039   0.00    1.2
2018/02/21 08:37:30.000   4208047.0115    228666.2650   4771795.2768   2   7   0.0088   0.0116   0.0040   0.0080   0.0036   0.0038   0.00    1.2
2018/02/21 08:38:00.000   4208047.0173    228666.2667   4771795.2810   2   7   0.0087   0.0113   0.0039   0.0078   0.0035   0.0037   0.00    1.2
2018/02/21 08:38:30.000   4208047.0237    228666.2705   4771795.2848   2   7   0.0085   0.0111   0.0039   0.0076   0.0035   0.0036   0.00    1.3
2018/02/21 08:39:00.000   4208047.0315    228666.2765   4771795.2880   2   7   0.0083   0.0109   0.0038   0.0074   0.0034   0.0036   0.00    1.3
2018/02/21 08:39:30.000   4208047.0385    228666.2818   4771795.2903   2   7   0.0082   0.0107   0.0037   0.0073   0.0033   0.0035   0.00    1.3
2018/02/21 08:40:00.000   4208047.0442    228666.2861   4771795.2911   2   7   0.0080   0.0105   0.0037   0.0071   0.0032   0.0034   0.00    1.3
2018/02/21 08:40:30.000   4208047.0484    228666.2911   4771795.2906   2   7   0.0079   0.0103   0.0036   0.0070   0.0032   0.0034   0.00    1.3
2018/02/21 08:41:00.000   4208047.0534    228666.2960   4771795.2895   2   7   0.0077   0.0101   0.0036   0.0068   0.0031   0.0033   0.00    1.3
2018/02/21 08:41:30.000   4208047.0575    228666.3013   4771795.2876   2   7   0.0076   0.0100   0.0035   0.0067   0.0030   0.0032   0.00    1.2
2018/02/21 08:42:00.000   4208047.0616    228666.3069   4771795.2846   2   7   0.0074   0.0098   0.0034   0.0065   0.0030   0.0032   0.00    1.2
2018/02/21 08:42:30.000   4208047.0664    228666.3134   4771795.2813   2   7   0.0073   0.0096   0.0034   0.0064   0.0029   0.0031   0.00    1.2
2018/02/21 08:43:00.000   4208047.0726    228666.3202   4771795.2785   2   7   0.0072   0.0095   0.0033   0.0063   0.0029   0.0031   0.00    1.2
2018/02/21 08:43:30.000   4208047.0799    228666.3285   4771795.2758   2   7   0.0070   0.0093   0.0033   0.0061   0.0028   0.0030   0.00    1.2
2018/02/21 08:44:00.000   4208047.0871    228666.3381   4771795.2733   2   7   0.0069   0.0092   0.0032   0.0060   0.0027   0.0030   0.00    1.2
2018/02/21 08:44:30.000   4208047.0954    228666.3472   4771795.2710   2   7   0.0068   0.0090   0.0032   0.0059   0.0027   0.0029   0.00    1.2
2018/02/21 08:45:00.000   4208047.1034    228666.3563   4771795.2690   2   7   0.0067   0.0089   0.0031   0.0058   0.0026   0.0029   0.00    1.2
2018/02/21 08:45:30.000   4208047.1115    228666.3646   4771795.2668   2   7   0.0066   0.0087   0.0031   0.0057   0.0026   0.0028   0.00    1.1
2018/02/21 08:46:00.000   4208047.1199    228666.3722   4771795.2648   2   7   0.0064   0.0086   0.0030   0.0056   0.0025   0.0028   0.00    1.1
2018/02/21 08:46:30.000   4208047.1283    228666.3800   4771795.2625   2   7   0.0063   0.0085   0.0030   0.0055   0.0025   0.0027   0.00    1.1
2018/02/21 08:47:00.000   4208047.1372    228666.3880   4771795.2602   2   7   0.0062   0.0083   0.0030   0.0054   0.0025   0.0027   0.00    1.1
2018/02/21 08:47:30.000   4208047.1467    228666.3963   4771795.2589   2   7   0.0061   0.0082   0.0029   0.0053   0.0024   0.0026   0.00    1.1
2018/02/21 08:48:00.000   4208047.1553    228666.4050   4771795.2574   2   6   0.0060   0.0081   0.0029   0.0052   0.0024   0.0026   0.00    1.0
2018/02/21 08:48:30.000   4208047.1635    228666.4133   4771795.2563   2   6   0.0060   0.0080   0.0028   0.0051   0.0023   0.0026   0.00    1.0
2018/02/21 08:49:00.000   4208047.1718    228666.4217   4771795.2553   2   6   0.0059   0.0079   0.0028   0.0050   0.0023   0.0025   0.00    1.0
2018/02/21 08:49:30.000   4208047.1801    228666.4301   4771795.2545   2   6   0.0058   0.0078   0.0028   0.0049   0.0023   0.0025   0.00    1.0
2018/02/21 08:50:00.000   4208047.1873    228666.4380   4771795.2541   2   6   0.0057   0.0077   0.0027   0.0048   0.0022   0.0025   0.00    1.1
2018/02/21 08:50:30.000   4208047.1943    228666.4458   4771795.2541   2   6   0.0056   0.0075   0.0027   0.0047   0.0022   0.0024   0.00    1.1
2018/02/21 08:51:00.000   4208047.2012    228666.4532   4771795.2540   2   6   0.0055   0.0074   0.0027   0.0046   0.0021   0.0024   0.00    1.1
2018/02/21 08:51:30.000   4208047.2078    228666.4601   4771795.2536   2   6   0.0055   0.0073   0.0027   0.0045   0.0021   0.0024   0.00    1.1
2018/02/21 08:52:00.000   4208047.2144    228666.4668   4771795.2539   2   6   0.0054   0.0073   0.0026   0.0045   0.0021   0.0023   0.00    1.2
2018/02/21 08:52:30.000   4208047.2207    228666.4739   4771795.2544   2   6   0.0053   0.0072   0.0026   0.0044   0.0020   0.0023   0.00    1.2
2018/02/21 08:53:00.000   4208047.2270    228666.4813   4771795.2554   2   6   0.0052   0.0071   0.0026   0.0043   0.0020   0.0023   0.00    1.2
2018/02/21 08:53:30.000   4208047.2330    228666.4882   4771795.2565   2   6   0.0052   0.0070   0.0025   0.0042   0.0020   0.0023   0.00    1.3
2018/02/21 08:54:00.000   4208047.2387    228666.4947   4771795.2574   2   6   0.0051   0.0069   0.0025   0.0042   0.0019   0.0022   0.00    1.3
2018/02/21 08:54:30.000   4208047.2440    228666.5016   4771795.2588   2   6   0.0050   0.0068   0.0025   0.0041   0.0019   0.0022   0.00    1.4
2018/02/21 08:55:00.000   4208047.2491    228666.5091   4771795.2606   2   6   0.0049   0.0067   0.0025   0.0040   0.0019   0.0022   0.00    1.4
2018/02/21 08:55:30.000   4208047.2544    228666.5162   4771795.2625   2   6   0.0049   0.0067   0.0024   0.0040   0.0019   0.0021   0.00    1.5
2018/02/21 08:56:00.000   4208047.2595    228666.5233   4771795.2649   2   6   0.0048   0.0066   0.0024   0.0039   0.0018   0.0021   0.00    1.5
2018/02/21 08:56:30.000   4208047.2648    228666.5311   4771795.2672   2   6   0.0048   0.0065   0.0024   0.0038   0.0018   0.0021   0.00    1.6
2018/02/21 08:57:00.000   4208047.2703    228666.5389   4771795.2696   2   6   0.0047   0.0064   0.0024   0.0038   0.0018   0.0021   0.00    1.7
2018/02/21 08:57:30.000   4208047.2752    228666.5462   4771795.2719   2   6   0.0046   0.0064   0.0023   0.0037   0.0017   0.0020   0.00    1.7
2018/02/21 08:58:00.000   4208047.2803    228666.5538   4771795.2743   2   6   0.0046   0.0063   0.0023   0.0036   0.0017   0.0020   0.00    1.8
2018/02/21 08:58:30.000   4208047.2847    228666.5606   4771795.2764   2   6   0.0045   0.0062   0.0023   0.0036   0.0017   0.0020   0.00    1.9
2018/02/21 08:59:00.000   4208047.2888    228666.5674   4771795.2782   2   6   0.0045   0.0061   0.0023   0.0035   0.0017   0.0020   0.00    1.9
2018/02/21 08:59:30.000   4208047.2929    228666.5743   4771795.2800   2   6   0.0044   0.0061   0.0022   0.0035   0.0016   0.0020   0.00    2.0
2018/02/21 09:00:00.000   4208047.2967    228666.5828   4771795.2821   2   6   0.0044   0.0060   0.0022   0.0034   0.0016   0.0019   0.00    2.1
2018/02/21 09:00:30.000   4208047.3004    228666.5907   4771795.2840   2   6   0.0043   0.0060   0.0022   0.0034   0.0016   0.0019   0.00    2.2
2018/02/21 09:01:00.000   4208047.3039    228666.5988   4771795.2858   2   6   0.0042   0.0059   0.0022   0.0033   0.0016   0.0019   0.00    2.3
2018/02/21 09:01:30.000   4208047.3069    228666.6072   4771795.2877   2   6   0.0042   0.0058   0.0022   0.0033   0.0015   0.0019   0.00    2.4
2018/02/21 09:02:00.000   4208047.3101    228666.6154   4771795.2893   2   6   0.0041   0.0058   0.0021   0.0032   0.0015   0.0018   0.00    2.5
2018/02/21 09:02:30.000   4208047.3131    228666.6231   4771795.2908   2   6   0.0041   0.0057   0.0021   0.0032   0.0015   0.0018   0.00    2.7
2018/02/21 09:03:00.000   4208047.3161    228666.6309   4771795.2922   2   6   0.0041   0.0057   0.0021   0.0031   0.0015   0.0018   0.00    2.8
2018/02/21 09:03:30.000   4208047.3192    228666.6383   4771795.2931   2   6   0.0040   0.0056   0.0021   0.0031   0.0015   0.0018   0.00    2.9
2018/02/21 09:04:00.000   4208047.3220    228666.6451   4771795.2938   2   6   0.0040   0.0056   0.0021   0.0030   0.0014   0.0018   0.00    2.9
2018/02/21 09:04:30.000   4208047.3251    228666.6521   4771795.2943   2   6   0.0039   0.0055   0.0021   0.0030   0.0014   0.0018   0.00    3.0
2018/02/21 09:05:00.000   4208047.3280    228666.6584   4771795.2947   2   6   0.0039   0.0055   0.0020   0.0029   0.0014   0.0017   0.00    3.0
2018/02/21 09:05:30.000   4208047.3306    228666.6636   4771795.2950   2   6   0.0038   0.0054   0.0020   0.0029   0.0014   0.0017   0.00    3.0
2018/02/21 09:06:00.000   4208047.4580    228666.9121   4771795.2824   1   6   0.0016   0.0007   0.0016  -0.0007  -0.0007   0.0015   0.00    3.0
2018/02/21 09:06:30.000   4208047.4579    228666.9122   4771795.2825   1   6   0.0016   0.0007   0.0016  -0.0007  -0.0007   0.0015   0.00    3.0
2018/02/21 09:07:00.000   4208047.4578    228666.9122   4771795.2825   1   6   0.0016   0.0007   0.0016  -0.0007  -0.0007   0.0015   0.00    3.1
2018/02/21 09:07:30.000   4208047.4578    228666.9122   4771795.2826   1   6   0.0016   0.0007   0.0016  -0.0007  -0.0007   0.0014   0.00    3.1
2018/02/21 09:08:00.000   4208047.4578    228666.9122   4771795.2826   1   6   0.0016   0.0006   0.0016  -0.0007  -0.0007   0.0014   0.00    3.1
2018/02/21 09:08:30.000   4208047.4577    228666.9122   4771795.2825   1   6   0.0016   0.0006   0.0016  -0.0007  -0.0007   0.0014   0.00    3.2
2018/02/21 09:09:00.000   4208047.4575    228666.9122   4771795.2824   1   6   0.0016   0.0006   0.0016  -0.0007  -0.0007   0.0014   0.00    3.3
2018/02/21 09:09:30.000   4208047.4575    228666.9121   4771795.2823   1   6   0.0015   0.0006   0.0016  -0.0007  -0.0007   0.0014   0.00    3.3
2018/02/21 09:10:00.000   4208047.4573    228666.9120   4771795.2820   1   6   0.0015   0.0006   0.0015  -0.0007  -0.0007   0.0014   0.00    3.4
2018/02/21 09:10:30.000   4208047.4568    228666.9119   4771795.2814   1   6   0.0015   0.0006   0.0015  -0.0007  -0.0007   0.0014   0.00    3.5
2018/02/21 09:11:00.000   4208047.4564    228666.9118   4771795.2808   1   6   0.0015   0.0006   0.0015  -0.0006  -0.0006   0.0014   0.00    3.6
2018/02/21 09:11:30.000   4208047.4558    228666.9116   4771795.2800   1   6   0.0015   0.0006   0.0015  -0.0006  -0.0006   0.0014   0.00    3.7
2018/02/21 09:12:00.000   4208047.4552    228666.9114   4771795.2791   1   6   0.0015   0.0006   0.0015  -0.0006  -0.0006   0.0013   0.00    3.9
2018/02/21 09:12:30.000   4208047.3651    228666.7021   4771795.2864   2   7   0.0033   0.0048   0.0018   0.0023   0.0011   0.0015   0.00    1.0
2018/02/21 09:13:00.000   4208047.3674    228666.7027   4771795.2849   2   7   0.0033   0.0048   0.0018   0.0023   0.0011   0.0015   0.00    1.0
2018/02/21 09:13:30.000   4208047.3701    228666.7031   4771795.2834   2   7   0.0032   0.0048   0.0018   0.0023   0.0011   0.0015   0.00    1.0
2018/02/21 09:14:00.000   4208047.3728    228666.7029   4771795.2817   2   7   0.0032   0.0047   0.0018   0.0022   0.0011   0.0015   0.00    1.0
2018/02/21 09:14:30.000   4208047.3756    228666.7020   4771795.2797   2   7   0.0032   0.0047   0.0018   0.0022   0.0011   0.0015   0.00    1.0
2018/02/21 09:15:00.000   4208047.3781    228666.7011   4771795.2778   2   7   0.0032   0.0047   0.0017   0.0022   0.0011   0.0014   0.00    1.0
2018/02/21 09:15:30.000   4208047.3802    228666.7006   4771795.2760   2   7   0.0031   0.0046   0.0017   0.0021   0.0011   0.0014   0.00    1.1
2018/02/21 09:16:00.000   4208047.3824    228666.7005   4771795.2746   2   7   0.0031   0.0046   0.0017   0.0021   0.0011   0.0014   0.00    1.1
2018/02/21 09:16:30.000   4208047.3846    228666.7007   4771795.2732   2   7   0.0031   0.0046   0.0017   0.0021   0.0010   0.0014   0.00    1.1
2018/02/21 09:17:00.000   4208047.3869    228666.7004   4771795.2717   2   7   0.0030   0.0046   0.0017   0.0021   0.0010   0.0014   0.00    1.1
2018/02/21 09:17:30.000   4208047.3890    228666.7009   4771795.2704   2   7   0.0030   0.0045   0.0017   0.0020   0.0010   0.0014   0.00    1.1
2018/02/21 09:18:00.000   4208047.3908    228666.7016   4771795.2693   2   7   0.0030   0.0045   0.0017   0.0020   0.0010   0.0014   0.00    1.1
2018/02/21 09:18:30.000   4208047.3926    228666.7024   4771795.2682   2   7   0.0030   0.0045   0.0017   0.0020   0.0010   0.0014   0.00    1.1
2018/02/21 09:19:00.000   4208047.3944    228666.7037   4771795.2672   2   7   0.0029   0.0044   0.0017   0.0019   0.0010   0.0014   0.00    1.0
2018/02/21 09:19:30.000   4208047.3963    228666.7050   4771795.2663   2   7   0.0029   0.0044   0.0017   0.0019   0.0010   0.0013   0.00    1.0
2018/02/21 09:20:00.000   4208047.3979    228666.7061   4771795.2654   2   7   0.0029   0.0044   0.0016   0.0019   0.0010   0.0013   0.00    1.0
2018/02/21 09:20:30.000   4208047.3995    228666.7077   4771795.2646   2   7   0.0029   0.0044   0.0016   0.0019   0.0009   0.0013   0.00    1.1
2018/02/21 09:21:00.000   4208047.4012    228666.7094   4771795.2641   2   7   0.0028   0.0043   0.0016   0.0018   0.0009   0.0013   0.00    1.1
2018/02/21 09:21:30.000   4208047.4032    228666.7122   4771795.2638   2   7   0.0028   0.0043   0.0016   0.0018   0.0009   0.0013   0.00    1.1
2018/02/21 09:22:00.000   4208047.4047    228666.7148   4771795.2636   2   7   0.0028   0.0043   0.0016   0.0018   0.0009   0.0013   0.00    1.2
2018/02/21 09:22:30.000   4208047.4063    228666.7180   4771795.2638   2   6   0.0028   0.0043   0.0016   0.0018   0.0009   0.0013   0.00    1.2
2018/02/21 09:23:00.000   4208047.4080    228666.7215   4771795.2641   2   6   0.0027   0.0043   0.0016   0.0018   0.0009   0.0013   0.00    1.2
2018/02/21 09:23:30.000   4208047.4097    228666.7248   4771795.2644   2   6   0.0027   0.0042   0.0016   0.0017   0.0009   0.0013   0.00    1.3
2018/02/21 09:24:00.000   4208047.4116    228666.7277   4771795.2645   2   6   0.0027   0.0042   0.0016   0.0017   0.0009   0.0013   0.00    1.3
2018/02/21 09:24:30.000   4208047.4133    228666.7300   4771795.2644   2   6   0.0027   0.0042   0.0016   0.0017   0.0009   0.0013   0.00    1.4
2018/02/21 09:25:00.000   4208047.4152    228666.7319   4771795.2642   2   6   0.0027   0.0042   0.0016   0.0017   0.0009   0.0013   0.00    1.5
2018/02/21 09:25:30.000   4208047.4168    228666.7336   4771795.2639   2   6   0.0026   0.0042   0.0016   0.0017   0.0009   0.0013   0.00    1.5
2018/02/21 09:26:00.000   4208047.4186    228666.7353   4771795.2637   2   6   0.0026   0.0041   0.0016   0.0016   0.0009   0.0012   0.00    1.6
2018/02/21 09:26:30.000   4208047.4202    228666.7366   4771795.2635   2   6   0.0026   0.0041   0.0015   0.0016   0.0009   0.0012   0.00    1.7
2018/02/21 09:27:00.000   4208047.4218    228666.7375   4771795.2631   2   6   0.0026   0.0041   0.0015   0.0016   0.0009   0.0012   0.00    1.7
2018/02/21 09:27:30.000   4208047.4232    228666.7382   4771795.2627   2   6   0.0026   0.0041   0.0015   0.0016   0.0009   0.0012   0.00    1.8
2018/02/21 09:28:00.000   4208047.4248    228666.7389   4771795.2622   2   6   0.0025   0.0041   0.0015   0.0016   0.0008   0.0012   0.00    1.8
2018/02/21 09:28:30.000   4208047.4262    228666.7393   4771795.2616   2   6   0.0025   0.0041   0.0015   0.0015   0.0008   0.0012   0.00    1.9
2018/02/21 09:29:00.000   4208047.4275    228666.7394   4771795.2609   2   6   0.0025   0.0040   0.0015   0.0015   0.0008   0.0012   0.00    1.9
2018/02/21 09:29:30.000   4208047.4288    228666.7396   4771795.2603   2   6   0.0025   0.0040   0.0015   0.0015   0.0008   0.0012   0.00    2.0
2018/02/21 09:30:00.000   4208047.4302    228666.7394   4771795.2594   2   6   0.0025   0.0040   0.0015   0.0015   0.0008   0.0012   0.00    2.0
2018/02/21 09:30:30.000   4208047.4312    228666.7384   4771795.2583   2   6   0.0025   0.0040   0.0015   0.0015   0.0008   0.0012   0.00    2.1
2018/02/21 09:31:00.000   4208047.4325    228666.7375   4771795.2572   2   6   0.0024   0.0040   0.0015   0.0014   0.0008   0.0012   0.00    2.2
2018/02/21 09:31:30.000   4208047.4336    228666.7363   4771795.2561   2   6   0.0024   0.0040   0.0015   0.0014   0.0008   0.0012   0.00    2.2
2018/02/21 09:32:00.000   4208047.4347    228666.7349   4771795.2550   2   6   0.0024   0.0040   0.0015   0.0014   0.0008   0.0012   0.00    2.3
2018/02/21 09:32:30.000   4208047.4357    228666.7331   4771795.2537   2   6   0.0024   0.0039   0.0015   0.0014   0.0008   0.0012   0.00    2.3
2018/02/21 09:33:00.000   4208047.4366    228666.7313   4771795.2524   2   6   0.0024   0.0039   0.0015   0.0014   0.0008   0.0012   0.00    2.2
2018/02/21 09:33:30.000   4208047.4376    228666.7298   4771795.2513   2   6   0.0024   0.0039   0.0015   0.0014   0.0008   0.0012   0.00    2.2
2018/02/21 09:34:00.000   4208047.4385    228666.7284   4771795.2503   2   6   0.0023   0.0039   0.0015   0.0013   0.0008   0.0012   0.00    2.2
2018/02/21 09:34:30.000   4208047.4393    228666.7272   4771795.2494   2   6   0.0023   0.0039   0.0015   0.0013   0.0008   0.0012   0.00    2.2
2018/02/21 09:35:00.000   4208047.4401    228666.7262   4771795.2486   2   6   0.0023   0.0039   0.0014   0.0013   0.0008   0.0011   0.00    2.2
2018/02/21 09:35:30.000   4208047.4409    228666.7254   4771795.2480   2   6   0.0023   0.0039   0.0014   0.0013   0.0008   0.0011   0.00    2.2
2018/02/21 09:36:00.000   4208047.4417    228666.7248   4771795.2474   2   6   0.0023   0.0038   0.0014   0.0013   0.0008   0.0011   0.00    2.2
2018/02/21 09:36:30.000   4208047.4425    228666.7242   4771795.2470   2   6   0.0023   0.0038   0.0014   0.0013   0.0008   0.0011   0.00    2.2
2018/02/21 09:37:00.000   4208047.4434    228666.7240   4771795.2467   2   6   0.0023   0.0038   0.0014   0.0013   0.0008   0.0011   0.00    2.2
2018/02/21 09:37:30.000   4208047.4444    228666.7238   4771795.2464   2   6   0.0022   0.0038   0.0014   0.0012   0.0007   0.0011   0.00    2.2
2018/02/21 09:38:00.000   4208047.4453    228666.7238   4771795.2464   2   6   0.0022   0.0038   0.0014   0.0012   0.0007   0.0011   0.00    2.2
2018/02/21 09:38:30.000   4208047.4461    228666.7241   4771795.2465   2   6   0.0022   0.0038   0.0014   0.0012   0.0007   0.0011   0.00    2.2
2018/02/21 09:39:00.000   4208047.4470    228666.7244   4771795.2468   2   6   0.0022   0.0038   0.0014   0.0012   0.0007   0.0011   0.00    2.2
2018/02/21 09:39:30.000   4208047.4478    228666.7248   4771795.2471   2   6   0.0022   0.0038   0.0014   0.0012   0.0007   0.0011   0.00    2.2
2018/02/21 09:40:00.000   4208047.4483    228666.7253   4771795.2474   2   6   0.0022   0.0038   0.0014   0.0012   0.0007   0.0011   0.00    2.3
2018/02/21 09:40:30.000   4208047.4489    228666.7258   4771795.2478   2   6   0.0022   0.0037   0.0014   0.0012   0.0007   0.0011   0.00    2.3
2018/02/21 09:41:00.000   4208047.4496    228666.7265   4771795.2483   2   6   0.0021   0.0037   0.0014   0.0011   0.0007   0.0011   0.00    2.3
2018/02/21 09:41:30.000   4208047.4500    228666.7269   4771795.2488   2   6   0.0021   0.0037   0.0014   0.0011   0.0007   0.0011   0.00    2.4
2018/02/21 09:42:00.000   4208047.4506    228666.7273   4771795.2493   2   6   0.0021   0.0037   0.0014   0.0011   0.0007   0.0011   0.00    2.4
2018/02/21 09:42:30.000   4208047.4510    228666.7277   4771795.2499   2   6   0.0021   0.0037   0.0014   0.0011   0.0007   0.0011   0.00    2.5
2018/02/21 09:43:00.000   4208047.4514    228666.7280   4771795.2504   2   6   0.0021   0.0037   0.0014   0.0011   0.0007   0.0011   0.00    2.5
2018/02/21 09:43:30.000   4208047.4519    228666.7286   4771795.2509   2   6   0.0021   0.0037   0.0014   0.0011   0.0007   0.0011   0.00    2.5
2018/02/21 09:44:00.000   4208047.4522    228666.7291   4771795.2515   2   6   0.0021   0.0037   0.0014   0.0011   0.0007   0.0011   0.00    2.6
2018/02/21 09:44:30.000   4208047.4527    228666.7296   4771795.2521   2   6   0.0021   0.0037   0.0014   0.0010   0.0007   0.0011   0.00    2.6
2018/02/21 09:45:00.000   4208047.4533    228666.7300   4771795.2527   2   6   0.0021   0.0037   0.0014   0.0010   0.0007   0.0011   0.00    2.7
2018/02/21 09:45:30.000   4208047.4538    228666.7304   4771795.2534   2   6   0.0020   0.0037   0.0013   0.0010   0.0007   0.0010   0.00    2.7
2018/02/21 09:46:00.000   4208047.4543    228666.7308   4771795.2541   2   6   0.0020   0.0037   0.0013   0.0010   0.0007   0.0010   0.00    2.7
2018/02/21 09:46:30.000   4208047.4548    228666.7312   4771795.2548   2   6   0.0020   0.0036   0.0013   0.0010   0.0007   0.0010   0.00    2.8
2018/02/21 09:47:00.000   4208047.4554    228666.7316   4771795.2555   2   6   0.0020   0.0036   0.0013   0.0010   0.0006   0.0010   0.00    2.8
2018/02/21 09:47:30.000   4208047.4561    228666.7320   4771795.2562   2   6   0.0020   0.0036   0.0013   0.0010   0.0006   0.0010   0.00    2.9
2018/02/21 09:48:00.000   4208047.4566    228666.7324   4771795.2569   2   6   0.0020   0.0036   0.0013   0.0010   0.0006   0.0010   0.00    2.9
2018/02/21 09:48:30.000   4208047.4570    228666.7326   4771795.2575   2   6   0.0020   0.0036   0.0013   0.0009   0.0006   0.0010   0.00    3.0
2018/02/21 09:49:00.000   4208047.4446    228666.8906   4771795.2452   1   6   0.0012   0.0005   0.0010  -0.0002  -0.0004   0.0007   0.00    3.0
2018/02/21 09:49:30.000   4208047.4453    228666.8903   4771795.2459   1   6   0.0012   0.0005   0.0010  -0.0002  -0.0004   0.0007   0.00    3.1
2018/02/21 09:50:00.000   4208047.4460    228666.8901   4771795.2466   1   6   0.0012   0.0005   0.0010  -0.0002  -0.0004   0.0007   0.00    3.1
2018/02/21 09:50:30.000   4208047.4587    228666.7329   4771795.2600   2   7   0.0019   0.0036   0.0013   0.0009   0.0006   0.0010   0.00    1.0
2018/02/21 09:51:00.000   4208047.4589    228666.7328   4771795.2606   2   7   0.0019   0.0036   0.0013   0.0009   0.0006   0.0010   0.00    1.1
2018/02/21 09:51:30.000   4208047.4592    228666.7327   4771795.2612   2   7   0.0019   0.0036   0.0013   0.0009   0.0006   0.0010   0.00    1.1
2018/02/21 09:52:00.000   4208047.4593    228666.7327   4771795.2618   2   7   0.0019   0.0036   0.0013   0.0009   0.0006   0.0010   0.00    1.1
2018/02/21 09:52:30.000   4208047.4594    228666.7324   4771795.2623   2   7   0.0019   0.0036   0.0013   0.0009   0.0006   0.0010   0.00    1.2
2018/02/21 09:53:00.000   4208047.4594    228666.7321   4771795.2628   2   7   0.0019   0.0036   0.0013   0.0008   0.0006   0.0010   0.00    1.2
2018/02/21 09:53:30.000   4208047.4593    228666.7317   4771795.2633   2   7   0.0019   0.0036   0.0013   0.0008   0.0006   0.0010   0.00    1.2
2018/02/21 09:54:00.000   4208047.4592    228666.7311   4771795.2637   2   7   0.0019   0.0035   0.0013   0.0008   0.0006   0.0010   0.00    1.3
2018/02/21 09:54:30.000   4208047.4591    228666.7305   4771795.2641   2   7   0.0019   0.0035   0.0013   0.0008   0.0006   0.0010   0.00    1.3
2018/02/21 09:55:00.000   4208047.4588    228666.7298   4771795.2644   2   7   0.0018   0.0035   0.0013   0.0008   0.0006   0.0010   0.00    1.3
2018/02/21 09:55:30.000   4208047.4586    228666.7290   4771795.2648   2   7   0.0018   0.0035   0.0013   0.0008   0.0006   0.0010   0.00    1.4
2018/02/21 09:56:00.000   4208047.4584    228666.7283   4771795.2650   2   7   0.0018   0.0035   0.0013   0.0008   0.0006   0.0010   0.00    1.4
2018/02/21 09:56:30.000   4208047.4583    228666.7277   4771795.2653   2   7   0.0018   0.0035   0.0013   0.0008   0.0006   0.0010   0.00    1.4
2018/02/21 09:57:00.000   4208047.4582    228666.7271   4771795.2656   2   7   0.0018   0.0035   0.0013   0.0008   0.0005   0.0010   0.00    1.5
2018/02/21 09:57:30.000   4208047.4582    228666.7267   4771795.2659   2   7   0.0018   0.0035   0.0013   0.0008   0.0005   0.0010   0.00    1.5
2018/02/21 09:58:00.000   4208047.4583    228666.7263   4771795.2663   2   7   0.0018   0.0035   0.0013   0.0007   0.0005   0.0010   0.00    1.5
2018/02/21 09:58:30.000   4208047.4584    228666.7260   4771795.2667   2   7   0.0018   0.0035   0.0013   0.0007   0.0005   0.0010   0.00    1.5
2018/02/21 09:59:00.000   4208047.4586    228666.7258   4771795.2670   2   7   0.0018   0.0035   0.0012   0.0007   0.0005   0.0010   0.00    1.5
2018/02/21 09:59:30.000   4208047.4589    228666.7256   4771795.2673   2   7   0.0018   0.0035   0.0012   0.0007   0.0005   0.0009   0.00    1.5
2018/02/21 10:00:00.000   4208047.4592    228666.7253   4771795.2676   2   7   0.0018   0.0035   0.0012   0.0007   0.0005   0.0009   0.00    1.5
2018/02/21 10:00:30.000   4208047.4594    228666.7250   4771795.2678   2   7   0.0018   0.0035   0.0012   0.0007   0.0005   0.0009   0.00    1.5
2018/02/21 10:01:00.000   4208047.4596    228666.7247   4771795.2679   2   7   0.0017   0.0035   0.0012   0.0007   0.0005   0.0009   0.00    1.5
2018/02/21 10:01:30.000   4208047.4598    228666.7243   4771795.2681   2   7   0.0017   0.0035   0.0012   0.0007   0.0005   0.0009   0.00    1.5
2018/02/21 10:02:00.000   4208047.4600    228666.7240   4771795.2683   2   7   0.0017   0.0035   0.0012   0.0007   0.0005   0.0009   0.00    1.5
2018/02/21 10:02:30.000   4208047.4604    228666.7239   4771795.2685   2   7   0.0017   0.0035   0.0012   0.0007   0.0005   0.0009   0.00    1.5
2018/02/21 10:03:00.000   4208047.4607    228666.7237   4771795.2686   2   7   0.0017   0.0035   0.0012   0.0007   0.0005   0.0009   0.00    1.5
2018/02/21 10:03:30.000   4208047.4610    228666.7234   4771795.2688   2   7   0.0017   0.0035   0.0012   0.0006   0.0005   0.0009   0.00    1.5
2018/02/21 10:04:00.000   4208047.4613    228666.7231   4771795.2690   2   7   0.0017   0.0035   0.0012   0.0006   0.0005   0.0009   0.00    1.5
2018/02/21 10:04:30.000   4208047.4616    228666.7230   4771795.2691   2   8   0.0017   0.0035   0.0012   0.0006   0.0005   0.0009   0.00    1.0
2018/02/21 10:05:00.000   4208047.4618    228666.7228   4771795.2692   2   8   0.0017   0.0035   0.0012   0.0006   0.0005   0.0009   0.00    1.0
2018/02/21 10:05:30.000   4208047.4620    228666.7225   4771795.2693   2   8   0.0017   0.0035   0.0012   0.0006   0.0005   0.0009   0.00    1.0
2018/02/21 10:06:00.000   4208047.4623    228666.7223   4771795.2694   2   8   0.0017   0.0035   0.0012   0.0006   0.0005   0.0009   0.00    1.0
2018/02/21 10:06:30.000   4208047.4626    228666.7221   4771795.2695   2   8   0.0017   0.0034   0.0012   0.0006   0.0005   0.0009   0.00    1.0
2018/02/21 10:07:00.000   4208047.4630    228666.7220   4771795.2696   2   8   0.0017   0.0034   0.0012   0.0006   0.0004   0.0009   0.00    1.0
2018/02/21 10:07:30.000   4208047.4635    228666.7218   4771795.2698   2   8   0.0017   0.0034   0.0012   0.0006   0.0004   0.0009   0.00    1.0
2018/02/21 10:08:00.000   4208047.4639    228666.7215   4771795.2699   2   8   0.0016   0.0034   0.0012   0.0006   0.0004   0.0009   0.00    1.0
2018/02/21 10:08:30.000   4208047.4643    228666.7213   4771795.2700   2   8   0.0016   0.0034   0.0012   0.0006   0.0004   0.0009   0.00    1.0
2018/02/21 10:09:00.000   4208047.4647    228666.7211   4771795.2701   2   8   0.0016   0.0034   0.0012   0.0006   0.0004   0.0009   0.00    1.0
2018/02/21 10:09:30.000   4208047.4649    228666.7209   4771795.2702   2   8   0.0016   0.0034   0.0012   0.0005   0.0004   0.0009   0.00    1.0
2018/02/21 10:10:00.000   4208047.4651    228666.7206   4771795.2703   2   8   0.0016   0.0034   0.0012   0.0005   0.0004   0.0009   0.00    1.0
2018/02/21 10:10:30.000   4208047.4653    228666.7207   4771795.2705   2   7   0.0016   0.0034   0.0012   0.0005   0.0004   0.0009   0.00    1.0
2018/02/21 10:11:00.000   4208047.4656    228666.7208   4771795.2707   2   7   0.0016   0.0034   0.0012   0.0005   0.0004   0.0009   0.00    1.0
2018/02/21 10:11:30.000   4208047.4658    228666.7210   4771795.2708   2   7   0.0016   0.0034   0.0012   0.0005   0.0004   0.0009   0.00    1.0
2018/02/21 10:12:00.000   4208047.4660    228666.7212   4771795.2710   2   7   0.0016   0.0034   0.0012   0.0005   0.0004   0.0009   0.00    1.0
2018/02/21 10:12:30.000   4208047.4663    228666.7214   4771795.2713   2   7   0.0016   0.0034   0.0012   0.0005   0.0004   0.0009   0.00    1.0
2018/02/21 10:13:00.000   4208047.4666    228666.7216   4771795.2715   2   7   0.0016   0.0034   0.0012   0.0005   0.0004   0.0009   0.00    1.0
2018/02/21 10:13:30.000   4208047.4668    228666.7217   4771795.2717   2   7   0.0016   0.0034   0.0012   0.0005   0.0004   0.0009   0.00    1.0
2018/02/21 10:14:00.000   4208047.4672    228666.7219   4771795.2719   2   7   0.0016   0.0034   0.0012   0.0005   0.0004   0.0009   0.00    1.0
2018/02/21 10:14:30.000   4208047.4675    228666.7221   4771795.2721   2   7   0.0016   0.0034   0.0012   0.0005   0.0004   0.0009   0.00    1.0
2018/02/21 10:15:00.000   4208047.4678    228666.7222   4771795.2723   2   7   0.0016   0.0034   0.0012   0.0005   0.0004   0.0009   0.00    1.0
2018/02/21 10:15:30.000   4208047.4681    228666.7223   4771795.2725   2   7   0.0016   0.0034   0.0012   0.0005   0.0004   0.0009   0.00    1.0
2018/02/21 10:16:00.000   4208047.4684    228666.7224   4771795.2727   2   7   0.0016   0.0034   0.0012   0.0005   0.0004   0.0009   0.00    1.0
2018/02/21 10:16:30.000   4208047.4687    228666.7225   4771795.2729   2   7   0.0015   0.0034   0.0012   0.0005   0.0004   0.0009   0.00    1.0
2018/02/21 10:17:00.000   4208047.4691    228666.7225   4771795.2730   2   7   0.0015   0.0034   0.0012   0.0005   0.0004   0.0009   0.00    1.0
2018/02/21 10:17:30.000   4208047.4695    228666.7225   4771795.2732   2   7   0.0015   0.0034   0.0012   0.0005   0.0004   0.0009   0.00    1.0
2018/02/21 10:18:00.000   4208047.4699    228666.7225   4771795.2732   2   6   0.0015   0.0034   0.0012   0.0005   0.0004   0.0009   0.00    1.1
2018/02/21 10:18:30.000   4208047.4702    228666.7224   4771795.2732   2   6   0.0015   0.0034   0.0012   0.0005   0.0004   0.0009   0.00    1.1
2018/02/21 10:19:00.000   4208047.4704    228666.7223   4771795.2732   2   6   0.0015   0.0034   0.0012   0.0004   0.0004   0.0009   0.00    1.1
2018/02/21 10:19:30.000   4208047.4708    228666.7222   4771795.2732   2   6   0.0015   0.0034   0.0012   0.0004   0.0004   0.0009   0.00    1.1
2018/02/21 10:20:00.000   4208047.4711    228666.7221   4771795.2732   2   6   0.0015   0.0034   0.0012   0.0004   0.0004   0.0008   0.00    1.1
2018/02/21 10:20:30.000   4208047.4715    228666.7220   4771795.2732   2   6   0.0015   0.0034   0.0012   0.0004   0.0004   0.0008   0.00    1.1
2018/02/21 10:21:00.000   4208047.4718    228666.7218   4771795.2732   2   6   0.0015   0.0034   0.0012   0.0004   0.0004   0.0008   0.00    1.1
2018/02/21 10:21:30.000   4208047.4721    228666.7218   4771795.2732   2   6   0.0015   0.0034   0.0012   0.0004   0.0004   0.0008   0.00    1.1
2018/02/21 10:22:00.000   4208047.4724    228666.7216   4771795.2732   2   6   0.0015   0.0034   0.0012   0.0004   0.0004   0.0008   0.00    1.2
2018/02/21 10:22:30.000   4208047.4728    228666.7215   4771795.2733   2   6   0.0015   0.0034   0.0012   0.0004   0.0004   0.0008   0.00    1.2
2018/02/21 10:23:00.000   4208047.4730    228666.7212   4771795.2734   2   6   0.0015   0.0034   0.0012   0.0004   0.0004   0.0008   0.00    1.2
2018/02/21 10:23:30.000   4208047.4732    228666.7209   4771795.2735   2   6   0.0015   0.0034   0.0012   0.0004   0.0004   0.0008   0.00    1.2
2018/02/21 10:24:00.000   4208047.4735    228666.7207   4771795.2735   2   6   0.0015   0.0034   0.0011   0.0004   0.0004   0.0008   0.00    1.2
2018/02/21 10:24:30.000   4208047.4737    228666.7204   4771795.2735   2   6   0.0015   0.0034   0.0011   0.0004   0.0004   0.0008   0.00    1.2
2018/02/21 10:25:00.000   4208047.4738    228666.7202   4771795.2736   2   6   0.0015   0.0034   0.0011   0.0004   0.0004   0.0008   0.00    1.3
2018/02/21 10:25:30.000   4208047.4739    228666.7200   4771795.2736   2   6   0.0015   0.0034   0.0011   0.0004   0.0004   0.0008   0.00    1.3
2018/02/21 10:26:00.000   4208047.4739    228666.7199   4771795.2736   2   6   0.0015   0.0034   0.0011   0.0004   0.0004   0.0008   0.00    1.3
2018/02/21 10:26:30.000   4208047.4740    228666.7198   4771795.2737   2   6   0.0014   0.0034   0.0011   0.0004   0.0004   0.0008   0.00    1.3
2018/02/21 10:27:00.000   4208047.4740    228666.7196   4771795.2737   2   6   0.0014   0.0034   0.0011   0.0004   0.0004   0.0008   0.00    1.3
2018/02/21 10:27:30.000   4208047.4740    228666.7193   4771795.2738   2   6   0.0014   0.0034   0.0011   0.0004   0.0004   0.0008   0.00    1.3
2018/02/21 10:28:00.000   4208047.4740    228666.7188   4771795.2738   2   6   0.0014   0.0034   0.0011   0.0004   0.0004   0.0008   0.00    1.3
2018/02/21 10:28:30.000   4208047.4739    228666.7183   4771795.2739   2   6   0.0014   0.0034   0.0011   0.0004   0.0004   0.0008   0.00    1.4
2018/02/21 10:29:00.000   4208047.4738    228666.7177   4771795.2740   2   6   0.0014   0.0034   0.0011   0.0004   0.0004   0.0008   0.00    1.4
2018/02/21 10:29:30.000   4208047.4737    228666.7171   4771795.2741   2   6   0.0014   0.0034   0.0011   0.0004   0.0004   0.0008   0.00    1.4
2018/02/21 10:30:00.000   4208047.4737    228666.7164   4771795.2742   2   6   0.0014   0.0034   0.0011   0.0004   0.0004   0.0008   0.00    1.4
2018/02/21 10:30:30.000   4208047.4736    228666.7157   4771795.2743   2   6   0.0014   0.0034   0.0011   0.0004   0.0004   0.0008   0.00    1.4
2018/02/21 10:31:00.000   4208047.4734    228666.7152   4771795.2744   2   6   0.0014   0.0034   0.0011   0.0004   0.0004   0.0008   0.00    1.5
2018/02/21 10:31:30.000   4208047.4733    228666.7146   4771795.2745   2   6   0.0014   0.0034   0.0011   0.0004   0.0004   0.0008   0.00    1.5
2018/02/21 10:32:00.000   4208047.4732    228666.7139   4771795.2746   2   6   0.0014   0.0034   0.0011   0.0004   0.0004   0.0008   0.00    1.5
2018/02/21 10:32:30.000   4208047.4729    228666.7132   4771795.2746   2   6   0.0014   0.0034   0.0011   0.0004   0.0004   0.0008   0.00    1.5
2018/02/21 10:33:00.000   4208047.4727    228666.7126   4771795.2746   2   6   0.0014   0.0034   0.0011   0.0004   0.0004   0.0008   0.00    1.5
2018/02/21 10:33:30.000   4208047.4724    228666.7122   4771795.2747   2   6   0.0014   0.0034   0.0011   0.0004   0.0004   0.0008   0.00    1.5
2018/02/21 10:34:00.000   4208047.4721    228666.7117   4771795.2746   2   6   0.0014   0.0034   0.0011   0.0004   0.0004   0.0008   0.00    1.5
2018/02/21 10:34:30.000   4208047.4718    228666.7114   4771795.2746   2   6   0.0014   0.0034   0.0011   0.0004   0.0004   0.0008   0.00    1.5
2018/02/21 10:35:00.000   4208047.4714    228666.7111   4771795.2745   2   6   0.0014   0.0034   0.0011   0.0004   0.0004   0.0008   0.00    1.5
2018/02/21 10:35:30.000   4208047.4710    228666.7110   4771795.2744   2   7   0.0014   0.0034   0.0011   0.0004   0.0004   0.0008   0.00    1.0
2018/02/21 10:36:00.000   4208047.4705    228666.7111   4771795.2742   2   7   0.0014   0.0034   0.0011   0.0004   0.0004   0.0008   0.00    1.0
2018/02/21 10:36:30.000   4208047.4700    228666.7112   4771795.2740   2   7   0.0014   0.0034   0.0011   0.0004   0.0004   0.0008   0.00    1.0
2018/02/21 10:37:00.000   4208047.4695    228666.7114   4771795.2738   2   7   0.0014   0.0034   0.0011   0.0004   0.0004   0.0008   0.00    1.0
2018/02/21 10:37:30.000   4208047.4690    228666.7117   4771795.2736   2   7   0.0014   0.0034   0.0011   0.0004   0.0004   0.0008   0.00    1.0
2018/02/21 10:38:00.000   4208047.4685    228666.7119   4771795.2734   2   7   0.0014   0.0034   0.0011   0.0004   0.0004   0.0008   0.00    1.1
2018/02/21 10:38:30.000   4208047.4680    228666.7122   4771795.2732   2   7   0.0013   0.0033   0.0011   0.0004   0.0004   0.0008   0.00    1.1
2018/02/21 10:39:00.000   4208047.4675    228666.7125   4771795.2730   2   7   0.0013   0.0033   0.0011   0.0004   0.0004   0.0008   0.00    1.1
2018/02/21 10:39:30.000   4208047.4670    228666.7128   4771795.2727   2   7   0.0013   0.0033   0.0011   0.0004   0.0004   0.0008   0.00    1.1
2018/02/21 10:40:00.000   4208047.4665    228666.7132   4771795.2725   2   7   0.0013   0.0033   0.0011   0.0004   0.0004   0.0008   0.00    1.1
2018/02/21 10:40:30.000   4208047.4661    228666.7135   4771795.2723   2   7   0.0013   0.0033   0.0011   0.0004   0.0004   0.0008   0.00    1.1
2018/02/21 10:41:00.000   4208047.4657    228666.7139   4771795.2722   2   7   0.0013   0.0033   0.0011   0.0004   0.0004   0.0008   0.00    1.1
2018/02/21 10:41:30.000   4208047.4654    228666.7144   4771795.2721   2   7   0.0013   0.0033   0.0011   0.0004   0.0004   0.0008   0.00    1.1
2018/02/21 10:42:00.000   4208047.4651    228666.7147   4771795.2721   2   7   0.0013   0.0033   0.0011   0.0004   0.0004   0.0008   0.00    1.1
2018/02/21 10:42:30.000   4208047.4647    228666.7152   4771795.2720   2   7   0.0013   0.0033   0.0011   0.0004   0.0004   0.0008   0.00    1.1
2018/02/21 10:43:00.000   4208047.4644    228666.7157   4771795.2719   2   7   0.0013   0.0033   0.0011   0.0004   0.0004   0.0008   0.00    1.1
2018/02/21 10:43:30.000   4208047.4641    228666.7163   4771795.2718   2   7   0.0013   0.0033   0.0011   0.0004   0.0004   0.0008   0.00    1.1
2018/02/21 10:44:00.000   4208047.4638    228666.7170   4771795.2717   2   7   0.0013   0.0033   0.0011   0.0004   0.0004   0.0008   0.00    1.1
2018/02/21 10:44:30.000   4208047.4635    228666.7177   4771795.2717   2   7   0.0013   0.0033   0.0011   0.0004   0.0004   0.0008   0.00    1.1
2018/02/21 10:45:00.000   4208047.4632    228666.7185   4771795.2716   2   7   0.0013   0.0033   0.0011   0.0004   0.0004   0.0008   0.00    1.1
2018/02/21 10:45:30.000   4208047.4629    228666.7194   4771795.2716   2   7   0.0013   0.0033   0.0011   0.0004   0.0004   0.0008   0.00    1.1
2018/02/21 10:46:00.000   4208047.4625    228666.7202   4771795.2715   2   7   0.0013   0.0033   0.0011   0.0004   0.0004   0.0008   0.00    1.2
2018/02/21 10:46:30.000   4208047.4622    228666.7211   4771795.2713   2   7   0.0013   0.0033   0.0011   0.0004   0.0004   0.0008   0.00    1.2
2018/02/21 10:47:00.000   4208047.4618    228666.7221   4771795.2712   2   7   0.0013   0.0033   0.0011   0.0004   0.0004   0.0008   0.00    1.2
2018/02/21 10:47:30.000   4208047.4615    228666.7232   4771795.2711   2   7   0.0013   0.0033   0.0011   0.0004   0.0004   0.0008   0.00    1.2
2018/02/21 10:48:00.000   4208047.4612    228666.7243   4771795.2709   2   7   0.0013   0.0033   0.0011   0.0004   0.0004   0.0008   0.00    1.2
2018/02/21 10:48:30.000   4208047.4609    228666.7256   4771795.2708   2   7   0.0013   0.0033   0.0011   0.0005   0.0004   0.0008   0.00    1.2
2018/02/21 10:49:00.000   4208047.4607    228666.7267   4771795.2708   2   7   0.0013   0.0033   0.0011   0.0005   0.0004   0.0008   0.00    1.2
2018/02/21 10:49:30.000   4208047.4604    228666.7280   4771795.2707   2   7   0.0013   0.0033   0.0011   0.0005   0.0004   0.0007   0.00    1.2
2018/02/21 10:50:00.000   4208047.4601    228666.7293   4771795.2707   2   7   0.0013   0.0032   0.0011   0.0005   0.0004   0.0007   0.00    1.3
2018/02/21 10:50:30.000   4208047.4599    228666.7306   4771795.2707   2   7   0.0013   0.0032   0.0011   0.0005   0.0004   0.0007   0.00    1.3
2018/02/21 10:51:00.000   4208047.4596    228666.7318   4771795.2708   2   7   0.0013   0.0032   0.0011   0.0005   0.0004   0.0007   0.00    1.3
2018/02/21 10:51:30.000   4208047.4593    228666.7331   4771795.2709   2   7   0.0013   0.0032   0.0011   0.0005   0.0004   0.0007   0.00    1.3
2018/02/21 10:52:00.000   4208047.4591    228666.7342   4771795.2710   2   7   0.0013   0.0032   0.0011   0.0005   0.0004   0.0007   0.00    1.3
2018/02/21 10:52:30.000   4208047.4589    228666.7353   4771795.2712   2   7   0.0013   0.0032   0.0011   0.0005   0.0004   0.0007   0.00    1.4
2018/02/21 10:53:00.000   4208047.4587    228666.7362   4771795.2714   2   7   0.0012   0.0032   0.0011   0.0005   0.0004   0.0007   0.00    1.4
2018/02/21 10:53:30.000   4208047.4585    228666.7370   4771795.2716   2   7   0.0012   0.0032   0.0011   0.0005   0.0004   0.0007   0.00    1.4
2018/02/21 10:54:00.000   4208047.4582    228666.7377   4771795.2719   2   7   0.0012   0.0032   0.0011   0.0005   0.0004   0.0007   0.00    1.5
2018/02/21 10:54:30.000   4208047.4580    228666.7382   4771795.2722   2   7   0.0012   0.0032   0.0011   0.0005   0.0004   0.0007   0.00    1.5
2018/02/21 10:55:00.000   4208047.4577    228666.7387   4771795.2724   2   7   0.0012   0.0032   0.0011   0.0005   0.0004   0.0007   0.00    1.5
2018/02/21 10:55:30.000   4208047.4575    228666.7391   4771795.2727   2   7   0.0012   0.0032   0.0011   0.0005   0.0004   0.0007   0.00    1.5
2018/02/21 10:56:00.000   4208047.4573    228666.7395   4771795.2731   2   7   0.0012   0.0032   0.0011   0.0005   0.0004   0.0007   0.00    1.6
2018/02/21 10:56:30.000   4208047.4572    228666.7398   4771795.2734   2   7   0.0012   0.0032   0.0011   0.0005   0.0004   0.0007   0.00    1.6
2018/02/21 10:57:00.000   4208047.4570    228666.7405   4771795.2738   2   7   0.0012   0.0032   0.0011   0.0005   0.0004   0.0007   0.00    1.6
2018/02/21 10:57:30.000   4208047.4568    228666.7411   4771795.2742   2   7   0.0012   0.0032   0.0010   0.0005   0.0004   0.0007   0.00    1.6
2018/02/21 10:58:00.000   4208047.4567    228666.7417   4771795.2747   2   7   0.0012   0.0031   0.0010   0.0005   0.0004   0.0007   0.00    1.7
2018/02/21 10:58:30.000   4208047.4565    228666.7421   4771795.2750   2   7   0.0012   0.0031   0.0010   0.0005   0.0004   0.0007   0.00    1.7
2018/02/21 10:59:00.000   4208047.4564    228666.7427   4771795.2755   2   7   0.0012   0.0031   0.0010   0.0005   0.0004   0.0007   0.00    1.7
2018/02/21 10:59:30.000   4208047.4563    228666.7433   4771795.2758   2   7   0.0012   0.0031   0.0010   0.0005   0.0004   0.0007   0.00    1.8
2018/02/21 11:00:00.000   4208047.4562    228666.7437   4771795.2763   2   7   0.0012   0.0031   0.0010   0.0005   0.0004   0.0007   0.00    1.8
2018/02/21 11:00:30.000   4208047.4561    228666.7443   4771795.2766   2   7   0.0012   0.0031   0.0010   0.0005   0.0004   0.0007   0.00    1.8
2018/02/21 11:01:00.000   4208047.4561    228666.7449   4771795.2770   2   7   0.0012   0.0031   0.0010   0.0005   0.0004   0.0007   0.00    1.9
2018/02/21 11:01:30.000   4208047.4561    228666.7454   4771795.2773   2   7   0.0012   0.0031   0.0010   0.0005   0.0004   0.0007   0.00    1.9
2018/02/21 11:02:00.000   4208047.4556    228666.7459   4771795.2775   2   7   0.0012   0.0031   0.0010   0.0005   0.0004   0.0007   0.00    2.0
2018/02/21 11:02:30.000   4208047.4556    228666.7467   4771795.2777   2   7   0.0012   0.0031   0.0010   0.0005   0.0004   0.0007   0.00    2.0
2018/02/21 11:03:00.000   4208047.4556    228666.7478   4771795.2780   2   7   0.0012   0.0031   0.0010   0.0005   0.0003   0.0007   0.00    2.0
2018/02/21 11:03:30.000   4208047.4556    228666.7488   4771795.2782   2   7   0.0012   0.0031   0.0010   0.0005   0.0003   0.0007   0.00    2.1
2018/02/21 11:04:00.000   4208047.4556    228666.7497   4771795.2784   2   7   0.0012   0.0031   0.0010   0.0005   0.0003   0.0007   0.00    2.1
2018/02/21 11:04:30.000   4208047.4557    228666.7508   4771795.2785   2   7   0.0012   0.0030   0.0010   0.0005   0.0003   0.0007   0.00    2.2
2018/02/21 11:05:00.000   4208047.4558    228666.7520   4771795.2787   2   7   0.0012   0.0030   0.0010   0.0005   0.0003   0.0007   0.00    2.2
2018/02/21 11:05:30.000   4208047.4559    228666.7532   4771795.2787   2   7   0.0012   0.0030   0.0010   0.0005   0.0003   0.0007   0.00    2.3
2018/02/21 11:06:00.000   4208047.4560    228666.7542   4771795.2787   2   7   0.0012   0.0030   0.0010   0.0005   0.0003   0.0007   0.00    2.3
2018/02/21 11:06:30.000   4208047.4560    228666.7556   4771795.2787   2   7   0.0012   0.0030   0.0010   0.0005   0.0003   0.0007   0.00    2.4
2018/02/21 11:07:00.000   4208047.4560    228666.7568   4771795.2786   2   7   0.0012   0.0030   0.0010   0.0005   0.0003   0.0007   0.00    2.4
2018/02/21 11:07:30.000   4208047.4561    228666.7581   4771795.2785   2   7   0.0012   0.0030   0.0010   0.0005   0.0003   0.0007   0.00    2.5
2018/02/21 11:08:00.000   4208047.4561    228666.7595   4771795.2783   2   7   0.0012   0.0030   0.0010   0.0005   0.0003   0.0007   0.00    2.5
2018/02/21 11:08:30.000   4208047.4561    228666.7607   4771795.2780   2   7   0.0012   0.0030   0.0010   0.0005   0.0003   0.0007   0.00    2.5
2018/02/21 11:09:00.000   4208047.4561    228666.7619   4771795.2777   2   7   0.0012   0.0030   0.0010   0.0005   0.0003   0.0007   0.00    2.6
2018/02/21 11:09:30.000   4208047.4561    228666.7633   4771795.2775   2   7   0.0012   0.0030   0.0010   0.0005   0.0003   0.0007   0.00    2.6
2018/02/21 11:10:00.000   4208047.4560    228666.7647   4771795.2772   2   7   0.0012   0.0029   0.0010   0.0005   0.0003   0.0007   0.00    2.6
2018/02/21 11:10:30.000   4208047.4558    228666.7660   4771795.2770   2   7   0.0011   0.0029   0.0010   0.0005   0.0003   0.0007   0.00    2.7
2018/02/21 11:11:00.000   4208047.4557    228666.7673   4771795.2768   2   7   0.0011   0.0029   0.0010   0.0005   0.0003   0.0007   0.00    2.7
2018/02/21 11:11:30.000   4208047.4556    228666.7686   4771795.2766   2   7   0.0011   0.0029   0.0010   0.0005   0.0003   0.0007   0.00    2.7
2018/02/21 11:12:00.000   4208047.4554    228666.7700   4771795.2764   2   7   0.0011   0.0029   0.0010   0.0005   0.0003   0.0007   0.00    2.8
2018/02/21 11:12:30.000   4208047.4552    228666.7715   4771795.2762   2   7   0.0011   0.0029   0.0010   0.0005   0.0003   0.0007   0.00    2.8
2018/02/21 11:13:00.000   4208047.4550    228666.7729   4771795.2761   2   7   0.0011   0.0029   0.0010   0.0005   0.0003   0.0007   0.00    2.9
2018/02/21 11:13:30.000   4208047.4547    228666.7745   4771795.2760   2   7   0.0011   0.0029   0.0010   0.0005   0.0003   0.0007   0.00    2.9
2018/02/21 11:14:00.000   4208047.4545    228666.7758   4771795.2759   2   7   0.0011   0.0029   0.0010   0.0005   0.0003   0.0007   0.00    2.9
2018/02/21 11:14:30.000   4208047.4542    228666.7772   4771795.2759   2   7   0.0011   0.0029   0.0010   0.0005   0.0003   0.0007   0.00    2.9
2018/02/21 11:15:00.000   4208047.4539    228666.7786   4771795.2759   2   7   0.0011   0.0029   0.0010   0.0005   0.0003   0.0007   0.00    3.0
2018/02/21 11:15:30.000   4208047.4535    228666.7799   4771795.2758   2   7   0.0011   0.0028   0.0010   0.0005   0.0003   0.0007   0.00    3.0
2018/02/21 11:16:00.000   4208047.4536    228666.8843   4771795.2782   1   7   0.0008   0.0005   0.0009  -0.0002   0.0001   0.0006   0.00    3.0
2018/02/21 11:16:30.000   4208047.4535    228666.8844   4771795.2780   1   7   0.0008   0.0005   0.0009  -0.0002   0.0001   0.0006   0.00    3.0
2018/02/21 11:17:00.000   4208047.4535    228666.8846   4771795.2778   1   7   0.0008   0.0005   0.0009  -0.0002   0.0001   0.0006   0.00    3.1
2018/02/21 11:17:30.000   4208047.4535    228666.8847   4771795.2776   1   7   0.0008   0.0005   0.0009  -0.0002   0.0001   0.0006   0.00    3.1
2018/02/21 11:18:00.000   4208047.4536    228666.8847   4771795.2774   1   7   0.0008   0.0005   0.0009  -0.0002   0.0001   0.0006   0.00    3.2
2018/02/21 11:18:30.000   4208047.4538    228666.8848   4771795.2771   1   7   0.0008   0.0005   0.0009  -0.0002   0.0001   0.0006   0.00    3.2
2018/02/21 11:19:00.000   4208047.4539    228666.8849   4771795.2767   1   7   0.0008   0.0004   0.0009  -0.0002   0.0001   0.0006   0.00    3.3
2018/02/21 11:19:30.000   4208047.4542    228666.8850   4771795.2764   1   7   0.0008   0.0004   0.0009  -0.0002   0.0001   0.0006   0.00    3.3
2018/02/21 11:20:00.000   4208047.4545    228666.8851   4771795.2760   1   7   0.0008   0.0004   0.0009  -0.0002   0.0001   0.0006   0.00    3.4
2018/02/21 11:20:30.000   4208047.4548    228666.8852   4771795.2755   1   7   0.0008   0.0004   0.0009  -0.0002   0.0001   0.0006   0.00    3.5
2018/02/21 11:21:00.000   4208047.4551    228666.8852   4771795.2751   1   7   0.0008   0.0004   0.0009  -0.0002   0.0001   0.0006   0.00    3.5
2018/02/21 11:21:30.000   4208047.4552    228666.8852   4771795.2747   1   7   0.0008   0.0004   0.0009  -0.0002   0.0001   0.0006   0.00    3.6
2018/02/21 11:22:00.000   4208047.4553    228666.8853   4771795.2744   1   7   0.0008   0.0004   0.0009  -0.0002   0.0001   0.0006   0.00    3.6
2018/02/21 11:22:30.000   4208047.4553    228666.8853   4771795.2741   1   7   0.0008   0.0004   0.0009  -0.0002   0.0001   0.0006   0.00    3.6
