% program   : RTKPOST-QT ver.2.4.3 b27
% inp file  : /home/prof/Projet_geodesieSGRUEL/21_03_2018/sxj1052z.18o
% inp file  : /home/prof/Projet_geodesieSGRUEL/52/fega052z.18o
% inp file  : /home/prof/Projet_geodesieSGRUEL/52/fega052z.18o
% inp file  : /home/prof/Projet_geodesieSGRUEL/21_03_2018/brdc052z.18n
% obs start : 2018/02/21 08:00:00.0 GPST (week1989 288000.0s)
% obs end   : 2018/02/21 16:59:30.0 GPST (week1989 320370.0s)
% pos mode  : static
% freqs     : L1+L2
% solution  : forward
% elev mask : 15.0 deg
% dynamics  : off
% tidecorr  : off
% ionos opt : broadcast
% tropo opt : saastamoinen
% ephemeris : broadcast
% amb res   : continuous
% val thres : 3.0
% antenna1  :                       ( 0.0000  0.0000  0.0000)
% antenna2  : TPSCR.G3        TPSH  ( 0.0000  0.0000  0.0000)
% ref pos   :  4203470.8670    245064.8420   4774998.3550
%
% (x/y/z-ecef=WGS84,Q=1:fix,2:float,3:sbas,4:dgps,5:single,6:ppp,ns=# of satellites)
%  GPST                      x-ecef(m)      y-ecef(m)      z-ecef(m)   Q  ns   sdx(m)   sdy(m)   sdz(m)  sdxy(m)  sdyz(m)  sdzx(m) age(s)  ratio
2018/02/21 08:00:00.000   4208047.4106    228666.9616   4771795.1865   1   7   0.0094   0.0044   0.0098  -0.0016  -0.0022   0.0083   0.00    6.8
2018/02/21 08:00:30.000   4208047.4143    228666.9606   4771795.1885   1   7   0.0071   0.0032   0.0076   0.0006  -0.0007   0.0064   0.00    6.6
2018/02/21 08:01:00.000   4208047.4133    228666.9595   4771795.1871   1   7   0.0060   0.0026   0.0064   0.0009   0.0005   0.0055   0.00    5.9
2018/02/21 08:01:30.000   4208047.4116    228666.9592   4771795.1846   1   7   0.0052   0.0023   0.0057   0.0009   0.0006   0.0048   0.00    5.7
2018/02/21 08:02:00.000   4208047.4128    228666.9595   4771795.1857   1   7   0.0047   0.0020   0.0052   0.0009   0.0007   0.0044   0.00    5.6
2018/02/21 08:02:30.000   4208047.4117    228666.9592   4771795.1853   1   7   0.0043   0.0019   0.0048   0.0008   0.0006   0.0040   0.00    5.8
2018/02/21 08:03:00.000   4208047.4105    228666.9589   4771795.1841   1   7   0.0040   0.0017   0.0045   0.0008   0.0006   0.0038   0.00    6.3
2018/02/21 08:03:30.000   4208047.4093    228666.9586   4771795.1832   1   7   0.0038   0.0016   0.0042   0.0007   0.0006   0.0035   0.00    7.0
2018/02/21 08:04:00.000   4208047.4085    228666.9584   4771795.1830   1   7   0.0036   0.0015   0.0040   0.0007   0.0006   0.0034   0.00    7.2
2018/02/21 08:04:30.000   4208047.4082    228666.9581   4771795.1829   1   7   0.0034   0.0015   0.0038   0.0007   0.0006   0.0032   0.00    6.5
2018/02/21 08:05:00.000   4208047.4083    228666.9579   4771795.1834   1   7   0.0033   0.0014   0.0036   0.0007   0.0005   0.0031   0.00    5.8
2018/02/21 08:05:30.000   4208047.4085    228666.9578   4771795.1835   1   7   0.0031   0.0013   0.0035   0.0006   0.0005   0.0029   0.00    4.9
2018/02/21 08:06:00.000   4208047.4084    228666.9578   4771795.1834   1   7   0.0030   0.0013   0.0034   0.0006   0.0005   0.0028   0.00    5.0
2018/02/21 08:06:30.000   4208047.4089    228666.9576   4771795.1840   1   7   0.0029   0.0012   0.0033   0.0006   0.0005   0.0027   0.00    5.6
2018/02/21 08:07:00.000   4208047.4087    228666.9574   4771795.1843   1   7   0.0028   0.0012   0.0032   0.0006   0.0005   0.0027   0.00    5.9
2018/02/21 08:07:30.000   4208047.4085    228666.9571   4771795.1849   1   7   0.0027   0.0012   0.0031   0.0006   0.0005   0.0026   0.00    5.9
2018/02/21 08:08:00.000   4208047.4084    228666.9568   4771795.1855   1   7   0.0027   0.0011   0.0030   0.0005   0.0004   0.0025   0.00    5.6
2018/02/21 08:08:30.000   4208047.4076    228666.9564   4771795.1856   1   7   0.0026   0.0011   0.0029   0.0005   0.0004   0.0024   0.00    4.8
2018/02/21 08:09:00.000   4208047.4067    228666.9558   4771795.1856   1   7   0.0025   0.0011   0.0029   0.0005   0.0004   0.0024   0.00    4.0
2018/02/21 08:09:30.000   4208047.4055    228666.9551   4771795.1850   1   7   0.0025   0.0010   0.0028   0.0005   0.0004   0.0023   0.00    3.4
2018/02/21 08:10:00.000   4208047.5327    228667.0794   4771795.0276   2   7   0.0573   0.0720   0.0276   0.0500   0.0244   0.0271   0.00    2.8
2018/02/21 08:10:30.000   4208047.5429    228667.0803   4771795.0292   2   7   0.0543   0.0691   0.0258   0.0481   0.0234   0.0256   0.00    2.5
2018/02/21 08:11:00.000   4208047.5473    228667.0841   4771795.0358   2   7   0.0515   0.0663   0.0242   0.0462   0.0225   0.0243   0.00    2.5
2018/02/21 08:11:30.000   4208047.5380    228667.0669   4771795.0433   2   7   0.0490   0.0637   0.0228   0.0445   0.0216   0.0231   0.00    2.4
2018/02/21 08:12:00.000   4208047.5144    228667.0304   4771795.0639   2   7   0.0467   0.0612   0.0215   0.0428   0.0208   0.0220   0.00    2.5
2018/02/21 08:12:30.000   4208047.4884    228666.9919   4771795.0830   2   7   0.0445   0.0589   0.0203   0.0412   0.0200   0.0209   0.00    2.6
2018/02/21 08:13:00.000   4208047.4668    228666.9606   4771795.1063   2   7   0.0426   0.0567   0.0192   0.0397   0.0192   0.0200   0.00    2.9
2018/02/21 08:13:30.000   4208047.4085    228666.9536   4771795.1852   1   7   0.0021   0.0009   0.0024   0.0004   0.0003   0.0020   0.00    3.1
2018/02/21 08:14:00.000   4208047.4095    228666.9540   4771795.1863   1   7   0.0021   0.0009   0.0024   0.0004   0.0003   0.0020   0.00    3.6
2018/02/21 08:14:30.000   4208047.4105    228666.9542   4771795.1869   1   7   0.0020   0.0009   0.0024   0.0004   0.0003   0.0020   0.00    3.8
2018/02/21 08:15:00.000   4208047.4114    228666.9544   4771795.1874   1   7   0.0020   0.0009   0.0023   0.0004   0.0003   0.0019   0.00    3.9
2018/02/21 08:15:30.000   4208047.4117    228666.9544   4771795.1872   1   7   0.0020   0.0008   0.0023   0.0004   0.0003   0.0019   0.00    4.2
2018/02/21 08:16:00.000   4208047.4121    228666.9545   4771795.1872   1   7   0.0020   0.0008   0.0023   0.0004   0.0003   0.0019   0.00    4.3
2018/02/21 08:16:30.000   4208047.4126    228666.9546   4771795.1875   1   7   0.0019   0.0008   0.0022   0.0004   0.0003   0.0019   0.00    4.5
2018/02/21 08:17:00.000   4208047.4128    228666.9548   4771795.1875   1   7   0.0019   0.0008   0.0022   0.0004   0.0003   0.0018   0.00    4.6
2018/02/21 08:17:30.000   4208047.4133    228666.9548   4771795.1877   1   7   0.0019   0.0008   0.0022   0.0004   0.0002   0.0018   0.00    4.7
2018/02/21 08:18:00.000   4208047.4135    228666.9548   4771795.1875   1   7   0.0019   0.0008   0.0022   0.0003   0.0002   0.0018   0.00    4.9
2018/02/21 08:18:30.000   4208047.4139    228666.9548   4771795.1875   1   7   0.0018   0.0008   0.0022   0.0003   0.0002   0.0018   0.00    5.0
2018/02/21 08:19:00.000   4208047.4142    228666.9548   4771795.1877   1   7   0.0018   0.0008   0.0021   0.0003   0.0002   0.0018   0.00    4.9
2018/02/21 08:19:30.000   4208047.4144    228666.9548   4771795.1878   1   7   0.0018   0.0008   0.0021   0.0003   0.0002   0.0017   0.00    5.2
2018/02/21 08:20:00.000   4208047.4148    228666.9547   4771795.1881   1   7   0.0018   0.0008   0.0021   0.0003   0.0002   0.0017   0.00    5.3
2018/02/21 08:20:30.000   4208047.4151    228666.9547   4771795.1884   1   7   0.0018   0.0007   0.0021   0.0003   0.0002   0.0017   0.00    5.5
2018/02/21 08:21:00.000   4208047.4154    228666.9547   4771795.1888   1   7   0.0017   0.0007   0.0021   0.0003   0.0002   0.0017   0.00    5.6
2018/02/21 08:21:30.000   4208047.4157    228666.9547   4771795.1892   1   7   0.0017   0.0007   0.0020   0.0003   0.0002   0.0017   0.00    5.7
2018/02/21 08:22:00.000   4208047.4160    228666.9547   4771795.1893   1   7   0.0017   0.0007   0.0020   0.0003   0.0002   0.0017   0.00    5.6
2018/02/21 08:22:30.000   4208047.4162    228666.9547   4771795.1893   1   7   0.0017   0.0007   0.0020   0.0003   0.0002   0.0016   0.00    5.4
2018/02/21 08:23:00.000   4208047.4163    228666.9547   4771795.1893   1   7   0.0017   0.0007   0.0020   0.0003   0.0001   0.0016   0.00    5.6
2018/02/21 08:23:30.000   4208047.4167    228666.9548   4771795.1898   1   7   0.0017   0.0007   0.0020   0.0003   0.0001   0.0016   0.00    5.5
2018/02/21 08:24:00.000   4208047.4167    228666.9547   4771795.1897   1   7   0.0017   0.0007   0.0020   0.0003   0.0001   0.0016   0.00    5.9
2018/02/21 08:24:30.000   4208047.4170    228666.9548   4771795.1900   1   7   0.0016   0.0007   0.0020   0.0003   0.0001   0.0016   0.00    6.1
2018/02/21 08:25:00.000   4208047.4169    228666.9548   4771795.1900   1   7   0.0016   0.0007   0.0019   0.0003   0.0001   0.0016   0.00    6.6
2018/02/21 08:25:30.000   4208047.4170    228666.9549   4771795.1901   1   7   0.0016   0.0007   0.0019   0.0003   0.0001   0.0016   0.00    6.8
2018/02/21 08:26:00.000   4208047.4172    228666.9549   4771795.1901   1   7   0.0016   0.0007   0.0019   0.0003   0.0001   0.0016   0.00    6.8
2018/02/21 08:26:30.000   4208047.4172    228666.9549   4771795.1902   1   7   0.0016   0.0007   0.0019   0.0003   0.0001   0.0015   0.00    7.3
2018/02/21 08:27:00.000   4208047.4173    228666.9549   4771795.1902   1   7   0.0016   0.0007   0.0019   0.0003   0.0000   0.0015   0.00    7.5
2018/02/21 08:27:30.000   4208047.4173    228666.9548   4771795.1903   1   7   0.0016   0.0007   0.0019   0.0002  -0.0000   0.0015   0.00    7.7
2018/02/21 08:28:00.000   4208047.4175    228666.9548   4771795.1902   1   7   0.0016   0.0007   0.0019   0.0002  -0.0001   0.0015   0.00    7.7
2018/02/21 08:28:30.000   4208047.4175    228666.9549   4771795.1902   1   7   0.0016   0.0007   0.0019   0.0002  -0.0001   0.0015   0.00    7.6
2018/02/21 08:29:00.000   4208047.4176    228666.9548   4771795.1901   1   7   0.0015   0.0007   0.0019   0.0002  -0.0001   0.0015   0.00    7.9
2018/02/21 08:29:30.000   4208047.4175    228666.9549   4771795.1897   1   7   0.0015   0.0007   0.0019   0.0002  -0.0001   0.0015   0.00    7.7
2018/02/21 08:30:00.000   4208047.4175    228666.9549   4771795.1894   1   7   0.0015   0.0007   0.0018   0.0002  -0.0001   0.0015   0.00    7.4
2018/02/21 08:30:30.000   4208047.4174    228666.9549   4771795.1891   1   7   0.0015   0.0006   0.0018   0.0002  -0.0001   0.0015   0.00    7.6
2018/02/21 08:31:00.000   4208047.4174    228666.9550   4771795.1889   1   7   0.0015   0.0006   0.0018   0.0002  -0.0001   0.0015   0.00    7.6
2018/02/21 08:31:30.000   4208047.4174    228666.9551   4771795.1887   1   7   0.0015   0.0006   0.0018   0.0002  -0.0001   0.0015   0.00    7.4
2018/02/21 08:32:00.000   4208047.4174    228666.9551   4771795.1882   1   7   0.0015   0.0006   0.0018   0.0002  -0.0001   0.0014   0.00    7.1
2018/02/21 08:32:30.000   4208047.4174    228666.9552   4771795.1880   1   7   0.0015   0.0006   0.0018   0.0002  -0.0002   0.0014   0.00    7.0
2018/02/21 08:33:00.000   4208047.4174    228666.9553   4771795.1876   1   7   0.0015   0.0006   0.0018   0.0002  -0.0002   0.0014   0.00    7.0
2018/02/21 08:33:30.000   4208047.4175    228666.9554   4771795.1874   1   7   0.0015   0.0006   0.0018   0.0002  -0.0002   0.0014   0.00    6.7
2018/02/21 08:34:00.000   4208047.4177    228666.9555   4771795.1875   1   7   0.0015   0.0006   0.0018   0.0002  -0.0002   0.0014   0.00    6.4
2018/02/21 08:34:30.000   4208047.4178    228666.9555   4771795.1875   1   7   0.0014   0.0006   0.0018   0.0002  -0.0002   0.0014   0.00    6.6
2018/02/21 08:35:00.000   4208047.4182    228666.9556   4771795.1875   1   7   0.0014   0.0006   0.0018   0.0002  -0.0002   0.0014   0.00    6.1
2018/02/21 08:35:30.000   4208047.4183    228666.9557   4771795.1875   1   7   0.0014   0.0006   0.0018   0.0002  -0.0002   0.0014   0.00    6.3
2018/02/21 08:36:00.000   4208047.4185    228666.9558   4771795.1875   1   7   0.0014   0.0006   0.0017   0.0002  -0.0002   0.0014   0.00    6.1
2018/02/21 08:36:30.000   4208047.4187    228666.9558   4771795.1875   1   7   0.0014   0.0006   0.0017   0.0002  -0.0002   0.0014   0.00    5.9
2018/02/21 08:37:00.000   4208047.4188    228666.9559   4771795.1874   1   7   0.0014   0.0006   0.0017   0.0002  -0.0002   0.0014   0.00    5.7
2018/02/21 08:37:30.000   4208047.4189    228666.9560   4771795.1876   1   7   0.0014   0.0006   0.0017   0.0002  -0.0002   0.0014   0.00    5.8
2018/02/21 08:38:00.000   4208047.4192    228666.9561   4771795.1878   1   7   0.0014   0.0006   0.0017   0.0002  -0.0002   0.0014   0.00    5.6
2018/02/21 08:38:30.000   4208047.4194    228666.9563   4771795.1881   1   7   0.0014   0.0006   0.0017   0.0002  -0.0002   0.0013   0.00    5.6
2018/02/21 08:39:00.000   4208047.4195    228666.9563   4771795.1883   1   7   0.0014   0.0006   0.0017   0.0002  -0.0002   0.0013   0.00    5.8
2018/02/21 08:39:30.000   4208047.4196    228666.9564   4771795.1884   1   7   0.0014   0.0006   0.0017   0.0002  -0.0002   0.0013   0.00    5.9
2018/02/21 08:40:00.000   4208047.4198    228666.9565   4771795.1886   1   7   0.0014   0.0006   0.0017   0.0002  -0.0002   0.0013   0.00    5.9
2018/02/21 08:40:30.000   4208047.4201    228666.9566   4771795.1887   1   7   0.0014   0.0006   0.0017   0.0002  -0.0002   0.0013   0.00    5.9
2018/02/21 08:41:00.000   4208047.4202    228666.9567   4771795.1886   1   7   0.0014   0.0006   0.0017   0.0002  -0.0002   0.0013   0.00    5.8
2018/02/21 08:41:30.000   4208047.4204    228666.9568   4771795.1887   1   7   0.0014   0.0006   0.0017   0.0002  -0.0002   0.0013   0.00    5.7
2018/02/21 08:42:00.000   4208047.4204    228666.9568   4771795.1886   1   7   0.0013   0.0006   0.0017   0.0001  -0.0002   0.0013   0.00    5.9
2018/02/21 08:42:30.000   4208047.4203    228666.9568   4771795.1884   1   7   0.0013   0.0006   0.0017   0.0001  -0.0002   0.0013   0.00    6.1
2018/02/21 08:43:00.000   4208047.4202    228666.9568   4771795.1883   1   7   0.0013   0.0006   0.0016   0.0001  -0.0002   0.0013   0.00    6.3
2018/02/21 08:43:30.000   4208047.4201    228666.9567   4771795.1882   1   7   0.0013   0.0006   0.0016   0.0001  -0.0002   0.0013   0.00    6.6
2018/02/21 08:44:00.000   4208047.4200    228666.9568   4771795.1882   1   7   0.0013   0.0006   0.0016   0.0001  -0.0002   0.0013   0.00    6.6
2018/02/21 08:44:30.000   4208047.4198    228666.9568   4771795.1881   1   7   0.0013   0.0006   0.0016   0.0001  -0.0003   0.0013   0.00    6.8
2018/02/21 08:45:00.000   4208047.4198    228666.9568   4771795.1882   1   7   0.0013   0.0006   0.0016   0.0001  -0.0003   0.0013   0.00    7.2
2018/02/21 08:45:30.000   4208047.4198    228666.9568   4771795.1884   1   7   0.0013   0.0006   0.0016   0.0001  -0.0003   0.0013   0.00    7.5
2018/02/21 08:46:00.000   4208047.4198    228666.9568   4771795.1885   1   7   0.0013   0.0006   0.0016   0.0001  -0.0003   0.0012   0.00    7.5
2018/02/21 08:46:30.000   4208047.4196    228666.9568   4771795.1885   1   7   0.0013   0.0006   0.0016   0.0001  -0.0003   0.0012   0.00    7.7
2018/02/21 08:47:00.000   4208047.4195    228666.9568   4771795.1885   1   7   0.0013   0.0006   0.0016   0.0001  -0.0003   0.0012   0.00    8.2
2018/02/21 08:47:30.000   4208047.4195    228666.9567   4771795.1885   1   7   0.0013   0.0006   0.0016   0.0001  -0.0003   0.0012   0.00    8.6
2018/02/21 08:48:00.000   4208047.4194    228666.9568   4771795.1885   1   7   0.0013   0.0006   0.0016   0.0001  -0.0003   0.0012   0.00    8.6
2018/02/21 08:48:30.000   4208047.4193    228666.9570   4771795.1886   1   7   0.0013   0.0006   0.0016   0.0001  -0.0003   0.0012   0.00    8.2
2018/02/21 08:49:00.000   4208047.4194    228666.9571   4771795.1887   1   7   0.0013   0.0006   0.0016   0.0001  -0.0003   0.0012   0.00    8.0
2018/02/21 08:49:30.000   4208047.4193    228666.9571   4771795.1887   1   7   0.0013   0.0006   0.0016   0.0001  -0.0003   0.0012   0.00    8.2
2018/02/21 08:50:00.000   4208047.4193    228666.9572   4771795.1889   1   7   0.0013   0.0006   0.0016   0.0001  -0.0003   0.0012   0.00    8.3
2018/02/21 08:50:30.000   4208047.4193    228666.9573   4771795.1891   1   7   0.0013   0.0006   0.0015   0.0001  -0.0003   0.0012   0.00    8.1
2018/02/21 08:51:00.000   4208047.4193    228666.9573   4771795.1893   1   7   0.0013   0.0006   0.0015   0.0001  -0.0003   0.0012   0.00    8.1
2018/02/21 08:51:30.000   4208047.4149    228666.9588   4771795.1860   1   6   0.0023   0.0009   0.0021  -0.0011  -0.0010   0.0020   0.00    8.8
2018/02/21 08:52:00.000   4208047.4154    228666.9587   4771795.1865   1   6   0.0023   0.0009   0.0021  -0.0011  -0.0010   0.0020   0.00    9.3
2018/02/21 08:52:30.000   4208047.4158    228666.9586   4771795.1870   1   6   0.0023   0.0009   0.0021  -0.0011  -0.0010   0.0020   0.00    9.2
2018/02/21 08:53:00.000   4208047.4161    228666.9586   4771795.1875   1   6   0.0023   0.0009   0.0021  -0.0011  -0.0010   0.0020   0.00    8.9
2018/02/21 08:53:30.000   4208047.4165    228666.9585   4771795.1880   1   6   0.0022   0.0009   0.0021  -0.0011  -0.0010   0.0020   0.00    8.9
2018/02/21 08:54:00.000   4208047.4170    228666.9585   4771795.1886   1   6   0.0022   0.0009   0.0021  -0.0011  -0.0010   0.0020   0.00    9.1
2018/02/21 08:54:30.000   4208047.4172    228666.9584   4771795.1889   1   6   0.0022   0.0009   0.0020  -0.0011  -0.0010   0.0020   0.00    8.9
2018/02/21 08:55:00.000   4208047.4173    228666.9585   4771795.1891   1   6   0.0022   0.0009   0.0020  -0.0011  -0.0010   0.0020   0.00    8.5
2018/02/21 08:55:30.000   4208047.4177    228666.9585   4771795.1895   1   6   0.0022   0.0009   0.0020  -0.0011  -0.0010   0.0019   0.00    8.3
2018/02/21 08:56:00.000   4208047.4183    228666.9584   4771795.1901   1   6   0.0022   0.0008   0.0020  -0.0011  -0.0010   0.0019   0.00    8.0
2018/02/21 08:56:30.000   4208047.4181    228666.9585   4771795.1902   1   6   0.0022   0.0008   0.0020  -0.0010  -0.0010   0.0019   0.00    8.0
2018/02/21 08:57:00.000   4208047.4186    228666.9584   4771795.1906   1   6   0.0022   0.0008   0.0020  -0.0010  -0.0010   0.0019   0.00    8.5
2018/02/21 08:57:30.000   4208047.4188    228666.9583   4771795.1910   1   6   0.0021   0.0008   0.0020  -0.0010  -0.0010   0.0019   0.00    8.9
2018/02/21 08:58:00.000   4208047.4192    228666.9581   4771795.1915   1   6   0.0021   0.0008   0.0020  -0.0010  -0.0009   0.0019   0.00    9.0
2018/02/21 08:58:30.000   4208047.4194    228666.9580   4771795.1918   1   6   0.0021   0.0008   0.0020  -0.0010  -0.0009   0.0019   0.00    9.4
2018/02/21 08:59:00.000   4208047.4196    228666.9580   4771795.1921   1   6   0.0021   0.0008   0.0019  -0.0010  -0.0009   0.0019   0.00    9.5
2018/02/21 08:59:30.000   4208047.4196    228666.9581   4771795.1922   1   6   0.0021   0.0008   0.0019  -0.0010  -0.0009   0.0018   0.00    9.3
2018/02/21 09:00:00.000   4208047.4196    228666.9582   4771795.1924   1   6   0.0021   0.0008   0.0019  -0.0010  -0.0009   0.0018   0.00    8.9
2018/02/21 09:00:30.000   4208047.4199    228666.9581   4771795.1927   1   6   0.0021   0.0008   0.0019  -0.0010  -0.0009   0.0018   0.00    8.9
2018/02/21 09:01:00.000   4208047.4202    228666.9582   4771795.1930   1   6   0.0021   0.0008   0.0019  -0.0010  -0.0009   0.0018   0.00    8.8
2018/02/21 09:01:30.000   4208047.4204    228666.9582   4771795.1932   1   6   0.0020   0.0008   0.0019  -0.0010  -0.0009   0.0018   0.00    8.7
2018/02/21 09:02:00.000   4208047.4207    228666.9581   4771795.1936   1   6   0.0020   0.0008   0.0019  -0.0010  -0.0009   0.0018   0.00    8.8
2018/02/21 09:02:30.000   4208047.4210    228666.9581   4771795.1938   1   6   0.0020   0.0008   0.0019  -0.0010  -0.0009   0.0018   0.00    8.5
2018/02/21 09:03:00.000   4208047.4213    228666.9580   4771795.1940   1   6   0.0020   0.0008   0.0018  -0.0009  -0.0009   0.0017   0.00    8.3
2018/02/21 09:03:30.000   4208047.4212    228666.9580   4771795.1940   1   6   0.0020   0.0008   0.0018  -0.0009  -0.0009   0.0017   0.00    8.4
2018/02/21 09:04:00.000   4208047.4213    228666.9579   4771795.1941   1   6   0.0020   0.0008   0.0018  -0.0009  -0.0009   0.0017   0.00    8.4
2018/02/21 09:04:30.000   4208047.4213    228666.9579   4771795.1942   1   6   0.0020   0.0008   0.0018  -0.0009  -0.0009   0.0017   0.00    8.3
2018/02/21 09:05:00.000   4208047.4215    228666.9577   4771795.1944   1   6   0.0020   0.0008   0.0018  -0.0009  -0.0009   0.0017   0.00    8.4
2018/02/21 09:05:30.000   4208047.4217    228666.9576   4771795.1946   1   6   0.0020   0.0008   0.0018  -0.0009  -0.0008   0.0017   0.00    8.2
2018/02/21 09:06:00.000   4208047.4217    228666.9576   4771795.1946   1   6   0.0019   0.0008   0.0018  -0.0009  -0.0008   0.0017   0.00    8.2
2018/02/21 09:06:30.000   4208047.4218    228666.9575   4771795.1947   1   6   0.0019   0.0008   0.0018  -0.0009  -0.0008   0.0017   0.00    8.1
2018/02/21 09:07:00.000   4208047.4219    228666.9574   4771795.1948   1   6   0.0019   0.0008   0.0017  -0.0009  -0.0008   0.0016   0.00    8.0
2018/02/21 09:07:30.000   4208047.4220    228666.9574   4771795.1949   1   6   0.0019   0.0008   0.0017  -0.0009  -0.0008   0.0016   0.00    7.9
2018/02/21 09:08:00.000   4208047.4222    228666.9573   4771795.1950   1   6   0.0019   0.0008   0.0017  -0.0009  -0.0008   0.0016   0.00    7.8
2018/02/21 09:08:30.000   4208047.4222    228666.9572   4771795.1950   1   6   0.0019   0.0008   0.0017  -0.0009  -0.0008   0.0016   0.00    7.8
2018/02/21 09:09:00.000   4208047.4222    228666.9571   4771795.1949   1   6   0.0019   0.0008   0.0017  -0.0009  -0.0008   0.0016   0.00    7.7
2018/02/21 09:09:30.000   4208047.4221    228666.9571   4771795.1948   1   6   0.0019   0.0008   0.0017  -0.0008  -0.0008   0.0016   0.00    7.5
2018/02/21 09:10:00.000   4208047.4219    228666.9571   4771795.1947   1   6   0.0019   0.0008   0.0017  -0.0008  -0.0008   0.0016   0.00    7.6
2018/02/21 09:10:30.000   4208047.4218    228666.9570   4771795.1946   1   6   0.0018   0.0008   0.0017  -0.0008  -0.0008   0.0016   0.00    7.6
2018/02/21 09:11:00.000   4208047.4220    228666.9569   4771795.1947   1   6   0.0018   0.0008   0.0016  -0.0008  -0.0008   0.0015   0.00    7.6
2018/02/21 09:11:30.000   4208047.4218    228666.9569   4771795.1947   1   6   0.0018   0.0008   0.0016  -0.0008  -0.0008   0.0015   0.00    7.7
2018/02/21 09:12:00.000   4208047.4218    228666.9569   4771795.1947   1   6   0.0018   0.0008   0.0016  -0.0008  -0.0008   0.0015   0.00    7.7
2018/02/21 09:12:30.000   4208047.4219    228666.9569   4771795.1949   1   6   0.0018   0.0007   0.0016  -0.0008  -0.0008   0.0015   0.00    7.5
2018/02/21 09:13:00.000   4208047.3954    228666.9117   4771795.1908   2   7   0.0039   0.0064   0.0019   0.0032   0.0014   0.0019   0.00    1.8
2018/02/21 09:13:30.000   4208047.3963    228666.9118   4771795.1910   2   7   0.0039   0.0063   0.0019   0.0031   0.0013   0.0019   0.00    2.6
2018/02/21 09:14:00.000   4208047.4223    228666.9564   4771795.1952   1   7   0.0018   0.0007   0.0016  -0.0008  -0.0007   0.0015   0.00    3.5
2018/02/21 09:14:30.000   4208047.4221    228666.9562   4771795.1950   1   7   0.0018   0.0007   0.0016  -0.0008  -0.0007   0.0015   0.00    4.4
2018/02/21 09:15:00.000   4208047.4219    228666.9561   4771795.1948   1   7   0.0017   0.0007   0.0015  -0.0008  -0.0007   0.0014   0.00    5.3
2018/02/21 09:15:30.000   4208047.4218    228666.9561   4771795.1947   1   7   0.0017   0.0007   0.0015  -0.0008  -0.0007   0.0014   0.00    6.2
2018/02/21 09:16:00.000   4208047.4218    228666.9560   4771795.1948   1   7   0.0017   0.0007   0.0015  -0.0008  -0.0007   0.0014   0.00    7.0
2018/02/21 09:16:30.000   4208047.4219    228666.9559   4771795.1949   1   7   0.0017   0.0007   0.0015  -0.0007  -0.0007   0.0014   0.00    6.9
2018/02/21 09:17:00.000   4208047.4220    228666.9557   4771795.1950   1   7   0.0017   0.0007   0.0015  -0.0007  -0.0007   0.0014   0.00    7.0
2018/02/21 09:17:30.000   4208047.4220    228666.9557   4771795.1951   1   7   0.0017   0.0007   0.0015  -0.0007  -0.0007   0.0014   0.00    7.2
2018/02/21 09:18:00.000   4208047.4221    228666.9556   4771795.1951   1   7   0.0017   0.0007   0.0015  -0.0007  -0.0007   0.0014   0.00    7.0
2018/02/21 09:18:30.000   4208047.4221    228666.9556   4771795.1951   1   7   0.0017   0.0007   0.0015  -0.0007  -0.0007   0.0013   0.00    7.0
2018/02/21 09:19:00.000   4208047.4221    228666.9556   4771795.1952   1   7   0.0017   0.0007   0.0014  -0.0007  -0.0007   0.0013   0.00    7.1
2018/02/21 09:19:30.000   4208047.4222    228666.9555   4771795.1953   1   7   0.0017   0.0007   0.0014  -0.0007  -0.0007   0.0013   0.00    7.2
2018/02/21 09:20:00.000   4208047.4222    228666.9556   4771795.1953   1   7   0.0016   0.0007   0.0014  -0.0007  -0.0007   0.0013   0.00    7.1
2018/02/21 09:20:30.000   4208047.4221    228666.9557   4771795.1953   1   7   0.0016   0.0007   0.0014  -0.0007  -0.0007   0.0013   0.00    6.9
2018/02/21 09:21:00.000   4208047.4222    228666.9557   4771795.1955   1   7   0.0016   0.0007   0.0014  -0.0007  -0.0007   0.0013   0.00    7.1
2018/02/21 09:21:30.000   4208047.4222    228666.9557   4771795.1956   1   7   0.0016   0.0007   0.0014  -0.0007  -0.0007   0.0013   0.00    7.0
2018/02/21 09:22:00.000   4208047.4223    228666.9558   4771795.1957   1   7   0.0016   0.0007   0.0014  -0.0007  -0.0007   0.0013   0.00    6.9
2018/02/21 09:22:30.000   4208047.4225    228666.9558   4771795.1959   1   7   0.0016   0.0007   0.0014  -0.0007  -0.0007   0.0013   0.00    7.0
2018/02/21 09:23:00.000   4208047.4225    228666.9559   4771795.1978   1   6   0.0016   0.0007   0.0015  -0.0007  -0.0007   0.0013   0.00    7.7
2018/02/21 09:23:30.000   4208047.4225    228666.9558   4771795.1978   1   6   0.0016   0.0007   0.0015  -0.0007  -0.0007   0.0013   0.00    7.7
2018/02/21 09:24:00.000   4208047.4225    228666.9558   4771795.1978   1   6   0.0016   0.0007   0.0015  -0.0007  -0.0007   0.0012   0.00    7.8
2018/02/21 09:24:30.000   4208047.4226    228666.9558   4771795.1980   1   6   0.0016   0.0007   0.0015  -0.0007  -0.0007   0.0012   0.00    7.8
2018/02/21 09:25:00.000   4208047.4227    228666.9558   4771795.1981   1   6   0.0016   0.0007   0.0015  -0.0007  -0.0006   0.0012   0.00    7.5
2018/02/21 09:25:30.000   4208047.4228    228666.9559   4771795.1983   1   6   0.0016   0.0007   0.0015  -0.0007  -0.0006   0.0012   0.00    7.6
2018/02/21 09:26:00.000   4208047.4230    228666.9559   4771795.1985   1   6   0.0016   0.0007   0.0015  -0.0007  -0.0006   0.0012   0.00    7.4
2018/02/21 09:26:30.000   4208047.4231    228666.9559   4771795.1986   1   6   0.0016   0.0007   0.0015  -0.0006  -0.0006   0.0012   0.00    7.3
2018/02/21 09:27:00.000   4208047.4232    228666.9560   4771795.1986   1   6   0.0016   0.0007   0.0015  -0.0006  -0.0006   0.0012   0.00    7.2
2018/02/21 09:27:30.000   4208047.4233    228666.9560   4771795.1987   1   6   0.0016   0.0007   0.0014  -0.0006  -0.0006   0.0012   0.00    7.1
2018/02/21 09:28:00.000   4208047.4233    228666.9560   4771795.1989   1   6   0.0015   0.0007   0.0014  -0.0006  -0.0006   0.0012   0.00    7.3
2018/02/21 09:28:30.000   4208047.4233    228666.9561   4771795.1989   1   6   0.0015   0.0007   0.0014  -0.0006  -0.0006   0.0012   0.00    7.6
2018/02/21 09:29:00.000   4208047.4234    228666.9561   4771795.1990   1   6   0.0015   0.0007   0.0014  -0.0006  -0.0006   0.0012   0.00    7.5
2018/02/21 09:29:30.000   4208047.4234    228666.9561   4771795.1991   1   6   0.0015   0.0007   0.0014  -0.0006  -0.0006   0.0011   0.00    7.6
2018/02/21 09:30:00.000   4208047.4235    228666.9562   4771795.1993   1   6   0.0015   0.0007   0.0014  -0.0006  -0.0006   0.0011   0.00    7.6
2018/02/21 09:30:30.000   4208047.4236    228666.9562   4771795.1994   1   6   0.0015   0.0007   0.0014  -0.0006  -0.0006   0.0011   0.00    7.5
2018/02/21 09:31:00.000   4208047.4237    228666.9562   4771795.1996   1   6   0.0015   0.0007   0.0014  -0.0006  -0.0006   0.0011   0.00    7.7
2018/02/21 09:31:30.000   4208047.4237    228666.9563   4771795.1996   1   6   0.0015   0.0007   0.0014  -0.0006  -0.0006   0.0011   0.00    7.9
2018/02/21 09:32:00.000   4208047.4238    228666.9563   4771795.1997   1   6   0.0015   0.0007   0.0014  -0.0006  -0.0006   0.0011   0.00    7.7
2018/02/21 09:32:30.000   4208047.4237    228666.9564   4771795.1996   1   6   0.0015   0.0007   0.0014  -0.0006  -0.0006   0.0011   0.00    7.9
2018/02/21 09:33:00.000   4208047.4237    228666.9564   4771795.1996   1   6   0.0015   0.0007   0.0014  -0.0006  -0.0006   0.0011   0.00    7.6
2018/02/21 09:33:30.000   4208047.4238    228666.9564   4771795.1997   1   6   0.0015   0.0007   0.0014  -0.0006  -0.0006   0.0011   0.00    7.7
2018/02/21 09:34:00.000   4208047.4237    228666.9565   4771795.1997   1   6   0.0015   0.0007   0.0013  -0.0006  -0.0006   0.0011   0.00    7.6
2018/02/21 09:34:30.000   4208047.4238    228666.9566   4771795.1998   1   6   0.0015   0.0007   0.0013  -0.0006  -0.0006   0.0011   0.00    7.7
2018/02/21 09:35:00.000   4208047.4240    228666.9566   4771795.2001   1   6   0.0015   0.0007   0.0013  -0.0006  -0.0006   0.0010   0.00    7.5
2018/02/21 09:35:30.000   4208047.4241    228666.9567   4771795.2002   1   6   0.0015   0.0007   0.0013  -0.0006  -0.0006   0.0010   0.00    7.5
2018/02/21 09:36:00.000   4208047.4241    228666.9567   4771795.2003   1   6   0.0015   0.0007   0.0013  -0.0006  -0.0006   0.0010   0.00    7.4
2018/02/21 09:36:30.000   4208047.4243    228666.9567   4771795.2005   1   6   0.0015   0.0007   0.0013  -0.0006  -0.0006   0.0010   0.00    7.4
2018/02/21 09:37:00.000   4208047.4243    228666.9567   4771795.2006   1   6   0.0015   0.0007   0.0013  -0.0006  -0.0006   0.0010   0.00    7.4
2018/02/21 09:37:30.000   4208047.4243    228666.9568   4771795.2008   1   6   0.0015   0.0007   0.0013  -0.0005  -0.0006   0.0010   0.00    7.3
2018/02/21 09:38:00.000   4208047.4244    228666.9568   4771795.2009   1   6   0.0015   0.0007   0.0013  -0.0005  -0.0006   0.0010   0.00    7.4
2018/02/21 09:38:30.000   4208047.4245    228666.9568   4771795.2010   1   6   0.0014   0.0007   0.0013  -0.0005  -0.0006   0.0010   0.00    7.2
2018/02/21 09:39:00.000   4208047.4247    228666.9568   4771795.2013   1   6   0.0014   0.0007   0.0013  -0.0005  -0.0006   0.0010   0.00    7.0
2018/02/21 09:39:30.000   4208047.4247    228666.9568   4771795.2014   1   6   0.0014   0.0007   0.0013  -0.0005  -0.0006   0.0010   0.00    7.0
2018/02/21 09:40:00.000   4208047.4247    228666.9569   4771795.2015   1   6   0.0014   0.0006   0.0013  -0.0005  -0.0006   0.0010   0.00    6.6
2018/02/21 09:40:30.000   4208047.4248    228666.9570   4771795.2016   1   6   0.0014   0.0006   0.0013  -0.0005  -0.0006   0.0010   0.00    6.4
2018/02/21 09:41:00.000   4208047.4249    228666.9570   4771795.2017   1   6   0.0014   0.0006   0.0013  -0.0005  -0.0006   0.0010   0.00    6.7
2018/02/21 09:41:30.000   4208047.4248    228666.9572   4771795.2016   1   6   0.0014   0.0006   0.0012  -0.0005  -0.0006   0.0010   0.00    6.3
2018/02/21 09:42:00.000   4208047.4249    228666.9571   4771795.2017   1   6   0.0014   0.0006   0.0012  -0.0005  -0.0006   0.0009   0.00    6.6
2018/02/21 09:42:30.000   4208047.4250    228666.9572   4771795.2018   1   6   0.0014   0.0006   0.0012  -0.0005  -0.0006   0.0009   0.00    6.7
2018/02/21 09:43:00.000   4208047.4250    228666.9573   4771795.2019   1   6   0.0014   0.0006   0.0012  -0.0005  -0.0006   0.0009   0.00    6.5
2018/02/21 09:43:30.000   4208047.4250    228666.9574   4771795.2020   1   6   0.0014   0.0006   0.0012  -0.0005  -0.0006   0.0009   0.00    6.1
2018/02/21 09:44:00.000   4208047.4249    228666.9575   4771795.2021   1   6   0.0014   0.0006   0.0012  -0.0005  -0.0006   0.0009   0.00    6.0
2018/02/21 09:44:30.000   4208047.4250    228666.9576   4771795.2022   1   6   0.0014   0.0006   0.0012  -0.0005  -0.0006   0.0009   0.00    6.2
2018/02/21 09:45:00.000   4208047.4251    228666.9577   4771795.2023   1   6   0.0014   0.0006   0.0012  -0.0005  -0.0006   0.0009   0.00    6.1
2018/02/21 09:45:30.000   4208047.4250    228666.9577   4771795.2024   1   6   0.0014   0.0006   0.0012  -0.0005  -0.0006   0.0009   0.00    6.2
2018/02/21 09:46:00.000   4208047.4251    228666.9578   4771795.2024   1   6   0.0014   0.0006   0.0012  -0.0005  -0.0006   0.0009   0.00    6.2
2018/02/21 09:46:30.000   4208047.4250    228666.9579   4771795.2025   1   6   0.0014   0.0006   0.0012  -0.0005  -0.0006   0.0009   0.00    6.1
2018/02/21 09:47:00.000   4208047.4108    228666.9358   4771795.1971   2   7   0.0025   0.0047   0.0015   0.0015   0.0005   0.0013   0.00    2.1
2018/02/21 09:47:30.000   4208047.4249    228666.9580   4771795.2025   1   7   0.0014   0.0006   0.0012  -0.0005  -0.0005   0.0009   0.00    3.2
2018/02/21 09:48:00.000   4208047.4249    228666.9581   4771795.2024   1   7   0.0014   0.0006   0.0012  -0.0005  -0.0005   0.0009   0.00    4.5
2018/02/21 09:48:30.000   4208047.4248    228666.9582   4771795.2022   1   7   0.0014   0.0006   0.0012  -0.0005  -0.0005   0.0009   0.00    5.6
2018/02/21 09:49:00.000   4208047.4247    228666.9583   4771795.2021   1   7   0.0014   0.0006   0.0012  -0.0004  -0.0005   0.0009   0.00    6.0
2018/02/21 09:49:30.000   4208047.4247    228666.9584   4771795.2020   1   7   0.0014   0.0006   0.0011  -0.0004  -0.0005   0.0008   0.00    6.0
2018/02/21 09:50:00.000   4208047.4247    228666.9584   4771795.2019   1   7   0.0014   0.0006   0.0011  -0.0004  -0.0005   0.0008   0.00    6.1
2018/02/21 09:50:30.000   4208047.4247    228666.9585   4771795.2019   1   7   0.0014   0.0006   0.0011  -0.0004  -0.0005   0.0008   0.00    5.9
2018/02/21 09:51:00.000   4208047.4248    228666.9586   4771795.2018   1   7   0.0014   0.0006   0.0011  -0.0004  -0.0005   0.0008   0.00    5.9
2018/02/21 09:51:30.000   4208047.4247    228666.9584   4771795.2015   1   7   0.0014   0.0006   0.0011  -0.0004  -0.0005   0.0008   0.00    4.5
2018/02/21 09:52:00.000   4208047.4246    228666.9585   4771795.2014   1   7   0.0014   0.0006   0.0011  -0.0004  -0.0005   0.0008   0.00    4.3
2018/02/21 09:52:30.000   4208047.4246    228666.9586   4771795.2013   1   7   0.0014   0.0006   0.0011  -0.0004  -0.0005   0.0008   0.00    4.2
2018/02/21 09:53:00.000   4208047.4246    228666.9586   4771795.2012   1   7   0.0014   0.0006   0.0011  -0.0004  -0.0005   0.0008   0.00    4.5
2018/02/21 09:53:30.000   4208047.4246    228666.9587   4771795.2013   1   7   0.0014   0.0006   0.0011  -0.0004  -0.0005   0.0008   0.00    4.2
2018/02/21 09:54:00.000   4208047.4246    228666.9587   4771795.2013   1   7   0.0014   0.0006   0.0011  -0.0004  -0.0005   0.0008   0.00    4.3
2018/02/21 09:54:30.000   4208047.4246    228666.9587   4771795.2013   1   7   0.0014   0.0006   0.0011  -0.0004  -0.0004   0.0008   0.00    4.2
2018/02/21 09:55:00.000   4208047.4245    228666.9587   4771795.2012   1   7   0.0014   0.0006   0.0011  -0.0004  -0.0004   0.0008   0.00    4.2
2018/02/21 09:55:30.000   4208047.4246    228666.9587   4771795.2012   1   7   0.0014   0.0006   0.0011  -0.0004  -0.0004   0.0008   0.00    4.3
2018/02/21 09:56:00.000   4208047.4246    228666.9587   4771795.2013   1   7   0.0014   0.0006   0.0011  -0.0004  -0.0004   0.0008   0.00    4.4
2018/02/21 09:56:30.000   4208047.4247    228666.9588   4771795.2012   1   7   0.0014   0.0006   0.0011  -0.0004  -0.0004   0.0008   0.00    4.5
2018/02/21 09:57:00.000   4208047.4247    228666.9588   4771795.2013   1   7   0.0014   0.0006   0.0010  -0.0004  -0.0004   0.0008   0.00    4.4
2018/02/21 09:57:30.000   4208047.4247    228666.9588   4771795.2013   1   7   0.0014   0.0006   0.0010  -0.0004  -0.0004   0.0008   0.00    4.7
2018/02/21 09:58:00.000   4208047.4248    228666.9587   4771795.2013   1   7   0.0014   0.0006   0.0010  -0.0004  -0.0004   0.0008   0.00    4.8
2018/02/21 09:58:30.000   4208047.4248    228666.9587   4771795.2014   1   7   0.0014   0.0006   0.0010  -0.0003  -0.0004   0.0008   0.00    4.8
2018/02/21 09:59:00.000   4208047.4248    228666.9586   4771795.2013   1   7   0.0013   0.0006   0.0010  -0.0003  -0.0004   0.0008   0.00    5.2
2018/02/21 09:59:30.000   4208047.4249    228666.9585   4771795.2014   1   7   0.0013   0.0006   0.0010  -0.0003  -0.0004   0.0008   0.00    5.0
2018/02/21 10:00:00.000   4208047.4249    228666.9584   4771795.2013   1   7   0.0013   0.0006   0.0010  -0.0003  -0.0004   0.0007   0.00    5.3
2018/02/21 10:00:30.000   4208047.4249    228666.9584   4771795.2013   1   7   0.0013   0.0006   0.0010  -0.0003  -0.0004   0.0007   0.00    5.2
2018/02/21 10:01:00.000   4208047.4249    228666.9583   4771795.2012   1   7   0.0013   0.0006   0.0010  -0.0003  -0.0004   0.0007   0.00    5.5
2018/02/21 10:01:30.000   4208047.4249    228666.9583   4771795.2010   1   7   0.0013   0.0006   0.0010  -0.0003  -0.0004   0.0007   0.00    5.5
2018/02/21 10:02:00.000   4208047.4248    228666.9583   4771795.2009   1   7   0.0013   0.0006   0.0010  -0.0003  -0.0004   0.0007   0.00    6.6
2018/02/21 10:02:30.000   4208047.4249    228666.9583   4771795.2008   1   7   0.0013   0.0006   0.0010  -0.0003  -0.0004   0.0007   0.00    6.7
2018/02/21 10:03:00.000   4208047.4249    228666.9584   4771795.2006   1   7   0.0013   0.0006   0.0010  -0.0003  -0.0004   0.0007   0.00    5.1
2018/02/21 10:03:30.000   4208047.4250    228666.9584   4771795.2004   1   7   0.0013   0.0006   0.0010  -0.0003  -0.0004   0.0007   0.00    5.3
2018/02/21 10:04:00.000   4208047.4251    228666.9585   4771795.2002   1   7   0.0013   0.0006   0.0010  -0.0003  -0.0004   0.0007   0.00    5.1
2018/02/21 10:04:30.000   4208047.4251    228666.9585   4771795.2000   1   7   0.0013   0.0006   0.0010  -0.0003  -0.0004   0.0007   0.00    4.7
2018/02/21 10:05:00.000   4208047.4181    228666.9434   4771795.1988   2   8   0.0021   0.0044   0.0013   0.0011  -0.0001   0.0011   0.00    3.0
2018/02/21 10:05:30.000   4208047.4252    228666.9586   4771795.1996   1   8   0.0013   0.0006   0.0010  -0.0003  -0.0003   0.0007   0.00    4.9
2018/02/21 10:06:00.000   4208047.4254    228666.9587   4771795.1994   1   8   0.0013   0.0006   0.0010  -0.0003  -0.0003   0.0007   0.00    5.8
2018/02/21 10:06:30.000   4208047.4255    228666.9588   4771795.1992   1   8   0.0013   0.0006   0.0009  -0.0003  -0.0003   0.0007   0.00    7.4
2018/02/21 10:07:00.000   4208047.4257    228666.9589   4771795.1991   1   8   0.0013   0.0006   0.0009  -0.0003  -0.0003   0.0007   0.00    8.1
2018/02/21 10:07:30.000   4208047.4259    228666.9590   4771795.1986   1   8   0.0013   0.0006   0.0009  -0.0003  -0.0003   0.0007   0.00    3.0
2018/02/21 10:08:00.000   4208047.4195    228666.9438   4771795.1993   2   8   0.0020   0.0044   0.0013   0.0010  -0.0002   0.0011   0.00    2.8
2018/02/21 10:08:30.000   4208047.4198    228666.9439   4771795.1993   2   8   0.0020   0.0044   0.0013   0.0010  -0.0002   0.0011   0.00    2.7
2018/02/21 10:09:00.000   4208047.4267    228666.9593   4771795.1981   1   8   0.0013   0.0006   0.0009  -0.0003  -0.0003   0.0007   0.00    3.7
2018/02/21 10:09:30.000   4208047.4202    228666.9441   4771795.1995   2   8   0.0020   0.0044   0.0013   0.0010  -0.0003   0.0011   0.00    2.5
2018/02/21 10:10:00.000   4208047.4273    228666.9591   4771795.1974   1   7   0.0013   0.0006   0.0010  -0.0003  -0.0002   0.0007   0.00    3.5
2018/02/21 10:10:30.000   4208047.4274    228666.9592   4771795.1973   1   7   0.0013   0.0006   0.0009  -0.0003  -0.0002   0.0007   0.00    3.2
2018/02/21 10:11:00.000   4208047.4206    228666.9441   4771795.1997   2   7   0.0020   0.0044   0.0013   0.0010  -0.0003   0.0011   0.00    3.0
2018/02/21 10:11:30.000   4208047.4278    228666.9592   4771795.1971   1   7   0.0013   0.0006   0.0009  -0.0003  -0.0002   0.0007   0.00    3.3
2018/02/21 10:12:00.000   4208047.4280    228666.9593   4771795.1971   1   7   0.0013   0.0006   0.0009  -0.0003  -0.0002   0.0007   0.00    3.2
2018/02/21 10:12:30.000   4208047.4282    228666.9593   4771795.1970   1   7   0.0013   0.0006   0.0009  -0.0003  -0.0002   0.0007   0.00    3.1
2018/02/21 10:13:00.000   4208047.4285    228666.9593   4771795.1970   1   7   0.0012   0.0006   0.0009  -0.0003  -0.0002   0.0007   0.00    5.1
2018/02/21 10:13:30.000   4208047.4285    228666.9594   4771795.1969   1   7   0.0012   0.0006   0.0009  -0.0003  -0.0002   0.0007   0.00    6.9
2018/02/21 10:14:00.000   4208047.4286    228666.9594   4771795.1969   1   7   0.0012   0.0006   0.0009  -0.0003  -0.0002   0.0006   0.00    8.8
2018/02/21 10:14:30.000   4208047.4289    228666.9595   4771795.1969   1   7   0.0012   0.0006   0.0009  -0.0003  -0.0002   0.0006   0.00    9.1
2018/02/21 10:15:00.000   4208047.4291    228666.9595   4771795.1970   1   7   0.0012   0.0006   0.0009  -0.0003  -0.0002   0.0006   0.00    9.1
2018/02/21 10:15:30.000   4208047.4292    228666.9595   4771795.1969   1   7   0.0012   0.0006   0.0009  -0.0003  -0.0002   0.0006   0.00    8.9
2018/02/21 10:16:00.000   4208047.4294    228666.9596   4771795.1969   1   7   0.0012   0.0006   0.0009  -0.0003  -0.0002   0.0006   0.00    9.1
2018/02/21 10:16:30.000   4208047.4296    228666.9596   4771795.1969   1   7   0.0012   0.0006   0.0009  -0.0003  -0.0002   0.0006   0.00    8.9
2018/02/21 10:17:00.000   4208047.4297    228666.9596   4771795.1968   1   7   0.0012   0.0006   0.0009  -0.0003  -0.0002   0.0006   0.00    8.9
2018/02/21 10:17:30.000   4208047.4298    228666.9596   4771795.1967   1   7   0.0012   0.0006   0.0009  -0.0003  -0.0002   0.0006   0.00    8.8
2018/02/21 10:18:00.000   4208047.4300    228666.9596   4771795.1967   1   7   0.0012   0.0006   0.0009  -0.0003  -0.0002   0.0006   0.00    8.5
2018/02/21 10:18:30.000   4208047.4303    228666.9597   4771795.1966   1   7   0.0012   0.0006   0.0009  -0.0003  -0.0002   0.0006   0.00    8.5
2018/02/21 10:19:00.000   4208047.4304    228666.9597   4771795.1965   1   7   0.0012   0.0006   0.0009  -0.0003  -0.0002   0.0006   0.00    8.3
2018/02/21 10:19:30.000   4208047.4306    228666.9597   4771795.1964   1   7   0.0012   0.0006   0.0009  -0.0003  -0.0001   0.0006   0.00    8.1
2018/02/21 10:20:00.000   4208047.4307    228666.9598   4771795.1962   1   7   0.0012   0.0006   0.0009  -0.0003  -0.0001   0.0006   0.00    7.8
2018/02/21 10:20:30.000   4208047.4310    228666.9599   4771795.1961   1   7   0.0012   0.0005   0.0009  -0.0003  -0.0001   0.0006   0.00    7.5
2018/02/21 10:21:00.000   4208047.4313    228666.9600   4771795.1959   1   7   0.0012   0.0005   0.0009  -0.0003  -0.0001   0.0006   0.00    7.2
2018/02/21 10:21:30.000   4208047.4314    228666.9601   4771795.1959   1   7   0.0012   0.0005   0.0009  -0.0003  -0.0001   0.0006   0.00    6.9
2018/02/21 10:22:00.000   4208047.4292    228666.9616   4771795.1948   1   6   0.0013   0.0006   0.0009  -0.0005  -0.0003   0.0007   0.00    7.1
2018/02/21 10:22:30.000   4208047.4295    228666.9616   4771795.1948   1   6   0.0013   0.0006   0.0009  -0.0005  -0.0003   0.0007   0.00    6.9
2018/02/21 10:23:00.000   4208047.4297    228666.9617   4771795.1947   1   6   0.0013   0.0006   0.0009  -0.0005  -0.0003   0.0007   0.00    6.8
2018/02/21 10:23:30.000   4208047.4298    228666.9618   4771795.1947   1   6   0.0013   0.0006   0.0009  -0.0005  -0.0003   0.0007   0.00    6.8
2018/02/21 10:24:00.000   4208047.4301    228666.9619   4771795.1947   1   6   0.0012   0.0006   0.0009  -0.0005  -0.0003   0.0007   0.00    6.5
2018/02/21 10:24:30.000   4208047.4303    228666.9619   4771795.1947   1   6   0.0012   0.0006   0.0009  -0.0005  -0.0003   0.0007   0.00    6.3
2018/02/21 10:25:00.000   4208047.4303    228666.9620   4771795.1947   1   6   0.0012   0.0006   0.0009  -0.0005  -0.0003   0.0007   0.00    6.7
2018/02/21 10:25:30.000   4208047.4304    228666.9621   4771795.1948   1   6   0.0012   0.0006   0.0009  -0.0005  -0.0003   0.0007   0.00    6.6
2018/02/21 10:26:00.000   4208047.4306    228666.9622   4771795.1949   1   6   0.0012   0.0006   0.0009  -0.0005  -0.0003   0.0007   0.00    6.7
2018/02/21 10:26:30.000   4208047.4308    228666.9622   4771795.1950   1   6   0.0012   0.0006   0.0009  -0.0005  -0.0003   0.0007   0.00    6.7
2018/02/21 10:27:00.000   4208047.4309    228666.9622   4771795.1951   1   6   0.0012   0.0006   0.0009  -0.0005  -0.0003   0.0007   0.00    6.8
2018/02/21 10:27:30.000   4208047.4311    228666.9622   4771795.1952   1   6   0.0012   0.0006   0.0009  -0.0005  -0.0003   0.0007   0.00    6.8
2018/02/21 10:28:00.000   4208047.4314    228666.9622   4771795.1953   1   6   0.0012   0.0006   0.0009  -0.0005  -0.0003   0.0007   0.00    6.9
2018/02/21 10:28:30.000   4208047.4315    228666.9623   4771795.1954   1   6   0.0012   0.0006   0.0009  -0.0005  -0.0002   0.0007   0.00    7.0
2018/02/21 10:29:00.000   4208047.4315    228666.9623   4771795.1954   1   6   0.0012   0.0006   0.0009  -0.0005  -0.0002   0.0007   0.00    7.2
2018/02/21 10:29:30.000   4208047.4315    228666.9624   4771795.1954   1   6   0.0012   0.0006   0.0009  -0.0005  -0.0002   0.0007   0.00    7.2
2018/02/21 10:30:00.000   4208047.4316    228666.9625   4771795.1954   1   6   0.0012   0.0006   0.0009  -0.0005  -0.0002   0.0007   0.00    7.2
2018/02/21 10:30:30.000   4208047.4316    228666.9626   4771795.1954   1   6   0.0012   0.0006   0.0009  -0.0005  -0.0002   0.0007   0.00    7.2
2018/02/21 10:31:00.000   4208047.4315    228666.9627   4771795.1954   1   6   0.0012   0.0006   0.0009  -0.0004  -0.0002   0.0007   0.00    7.2
2018/02/21 10:31:30.000   4208047.4315    228666.9629   4771795.1954   1   6   0.0012   0.0006   0.0009  -0.0004  -0.0002   0.0007   0.00    7.2
2018/02/21 10:32:00.000   4208047.4315    228666.9629   4771795.1954   1   6   0.0012   0.0006   0.0009  -0.0004  -0.0002   0.0007   0.00    7.2
2018/02/21 10:32:30.000   4208047.4315    228666.9630   4771795.1953   1   6   0.0012   0.0006   0.0009  -0.0004  -0.0002   0.0007   0.00    7.3
2018/02/21 10:33:00.000   4208047.4315    228666.9630   4771795.1954   1   6   0.0011   0.0006   0.0009  -0.0004  -0.0002   0.0007   0.00    7.2
2018/02/21 10:33:30.000   4208047.4314    228666.9631   4771795.1955   1   6   0.0011   0.0006   0.0009  -0.0004  -0.0002   0.0007   0.00    7.5
2018/02/21 10:34:00.000   4208047.4313    228666.9631   4771795.1955   1   6   0.0011   0.0006   0.0009  -0.0004  -0.0002   0.0007   0.00    7.6
2018/02/21 10:34:30.000   4208047.4313    228666.9632   4771795.1956   1   6   0.0011   0.0006   0.0009  -0.0004  -0.0002   0.0007   0.00    7.7
2018/02/21 10:35:00.000   4208047.4312    228666.9633   4771795.1956   1   6   0.0011   0.0006   0.0009  -0.0004  -0.0002   0.0007   0.00    7.7
2018/02/21 10:35:30.000   4208047.4312    228666.9633   4771795.1956   1   6   0.0011   0.0006   0.0009  -0.0004  -0.0002   0.0007   0.00    7.7
2018/02/21 10:36:00.000   4208047.4222    228666.9468   4771795.1991   2   7   0.0016   0.0042   0.0012   0.0008  -0.0003   0.0009   0.00    1.7
2018/02/21 10:36:30.000   4208047.4222    228666.9471   4771795.1991   2   7   0.0016   0.0042   0.0012   0.0008  -0.0003   0.0009   0.00    2.5
2018/02/21 10:37:00.000   4208047.4313    228666.9632   4771795.1959   1   7   0.0011   0.0006   0.0009  -0.0004  -0.0002   0.0007   0.00    3.4
2018/02/21 10:37:30.000   4208047.4312    228666.9631   4771795.1960   1   7   0.0011   0.0006   0.0009  -0.0004  -0.0002   0.0007   0.00    4.3
2018/02/21 10:38:00.000   4208047.4313    228666.9630   4771795.1962   1   7   0.0011   0.0006   0.0009  -0.0004  -0.0002   0.0007   0.00    5.3
2018/02/21 10:38:30.000   4208047.4312    228666.9629   4771795.1963   1   7   0.0011   0.0006   0.0009  -0.0004  -0.0002   0.0007   0.00    6.4
2018/02/21 10:39:00.000   4208047.4312    228666.9629   4771795.1964   1   7   0.0011   0.0006   0.0009  -0.0004  -0.0002   0.0007   0.00    7.5
2018/02/21 10:39:30.000   4208047.4312    228666.9629   4771795.1965   1   7   0.0011   0.0006   0.0009  -0.0004  -0.0002   0.0007   0.00    8.7
2018/02/21 10:40:00.000   4208047.4312    228666.9628   4771795.1966   1   7   0.0011   0.0006   0.0009  -0.0004  -0.0002   0.0007   0.00    9.4
2018/02/21 10:40:30.000   4208047.4313    228666.9628   4771795.1967   1   7   0.0011   0.0006   0.0009  -0.0004  -0.0002   0.0007   0.00    9.1
2018/02/21 10:41:00.000   4208047.4313    228666.9628   4771795.1968   1   7   0.0011   0.0006   0.0009  -0.0004  -0.0002   0.0007   0.00    9.5
2018/02/21 10:41:30.000   4208047.4313    228666.9628   4771795.1969   1   7   0.0011   0.0005   0.0009  -0.0004  -0.0002   0.0007   0.00    9.5
2018/02/21 10:42:00.000   4208047.4314    228666.9628   4771795.1969   1   7   0.0011   0.0005   0.0009  -0.0004  -0.0002   0.0007   0.00    9.4
2018/02/21 10:42:30.000   4208047.4313    228666.9629   4771795.1969   1   7   0.0011   0.0005   0.0009  -0.0004  -0.0002   0.0007   0.00    9.8
2018/02/21 10:43:00.000   4208047.4313    228666.9629   4771795.1970   1   7   0.0011   0.0005   0.0009  -0.0004  -0.0002   0.0007   0.00    9.6
2018/02/21 10:43:30.000   4208047.4313    228666.9629   4771795.1970   1   7   0.0011   0.0005   0.0009  -0.0004  -0.0001   0.0007   0.00    9.5
2018/02/21 10:44:00.000   4208047.4314    228666.9630   4771795.1971   1   7   0.0010   0.0005   0.0009  -0.0004  -0.0001   0.0007   0.00    9.5
2018/02/21 10:44:30.000   4208047.4314    228666.9630   4771795.1970   1   7   0.0010   0.0005   0.0009  -0.0004  -0.0001   0.0007   0.00    9.5
2018/02/21 10:45:00.000   4208047.4313    228666.9630   4771795.1971   1   7   0.0010   0.0005   0.0009  -0.0004  -0.0001   0.0007   0.00    9.6
2018/02/21 10:45:30.000   4208047.4313    228666.9630   4771795.1971   1   7   0.0010   0.0005   0.0009  -0.0004  -0.0001   0.0007   0.00    9.6
2018/02/21 10:46:00.000   4208047.4312    228666.9631   4771795.1971   1   7   0.0010   0.0005   0.0009  -0.0004  -0.0001   0.0007   0.00    9.4
2018/02/21 10:46:30.000   4208047.4311    228666.9631   4771795.1971   1   7   0.0010   0.0005   0.0009  -0.0004  -0.0001   0.0007   0.00    9.4
2018/02/21 10:47:00.000   4208047.4311    228666.9631   4771795.1972   1   7   0.0010   0.0005   0.0009  -0.0004  -0.0001   0.0007   0.00    9.1
2018/02/21 10:47:30.000   4208047.4311    228666.9631   4771795.1972   1   7   0.0010   0.0005   0.0009  -0.0004  -0.0001   0.0007   0.00    8.7
2018/02/21 10:48:00.000   4208047.4310    228666.9631   4771795.1973   1   7   0.0010   0.0005   0.0009  -0.0004  -0.0001   0.0007   0.00    8.6
2018/02/21 10:48:30.000   4208047.4311    228666.9631   4771795.1973   1   7   0.0010   0.0005   0.0009  -0.0004  -0.0001   0.0007   0.00    8.8
2018/02/21 10:49:00.000   4208047.4311    228666.9631   4771795.1973   1   7   0.0010   0.0005   0.0009  -0.0004  -0.0001   0.0007   0.00    8.8
2018/02/21 10:49:30.000   4208047.4311    228666.9631   4771795.1974   1   7   0.0010   0.0005   0.0009  -0.0004  -0.0001   0.0007   0.00    8.8
2018/02/21 10:50:00.000   4208047.4311    228666.9631   4771795.1974   1   7   0.0010   0.0005   0.0009  -0.0004  -0.0001   0.0007   0.00    8.9
2018/02/21 10:50:30.000   4208047.4310    228666.9631   4771795.1974   1   7   0.0010   0.0005   0.0009  -0.0004  -0.0001   0.0007   0.00    8.6
2018/02/21 10:51:00.000   4208047.4311    228666.9631   4771795.1975   1   7   0.0010   0.0005   0.0009  -0.0004  -0.0001   0.0007   0.00    9.1
2018/02/21 10:51:30.000   4208047.4310    228666.9632   4771795.1975   1   7   0.0010   0.0005   0.0009  -0.0004  -0.0001   0.0007   0.00    8.5
2018/02/21 10:52:00.000   4208047.4310    228666.9632   4771795.1975   1   7   0.0010   0.0005   0.0009  -0.0004  -0.0001   0.0007   0.00    8.6
2018/02/21 10:52:30.000   4208047.4310    228666.9632   4771795.1975   1   7   0.0010   0.0005   0.0009  -0.0004  -0.0001   0.0007   0.00    8.5
2018/02/21 10:53:00.000   4208047.4311    228666.9632   4771795.1976   1   7   0.0010   0.0005   0.0009  -0.0004  -0.0001   0.0007   0.00    8.8
2018/02/21 10:53:30.000   4208047.4312    228666.9632   4771795.1976   1   7   0.0010   0.0005   0.0009  -0.0003  -0.0001   0.0006   0.00    8.9
2018/02/21 10:54:00.000   4208047.4312    228666.9632   4771795.1977   1   7   0.0010   0.0005   0.0009  -0.0003  -0.0001   0.0006   0.00    9.0
2018/02/21 10:54:30.000   4208047.4312    228666.9632   4771795.1977   1   7   0.0010   0.0005   0.0009  -0.0003  -0.0001   0.0006   0.00    9.1
2018/02/21 10:55:00.000   4208047.4314    228666.9632   4771795.1977   1   7   0.0010   0.0005   0.0009  -0.0003  -0.0001   0.0006   0.00    8.8
2018/02/21 10:55:30.000   4208047.4314    228666.9632   4771795.1978   1   7   0.0010   0.0005   0.0009  -0.0003  -0.0001   0.0006   0.00    9.1
2018/02/21 10:56:00.000   4208047.4314    228666.9631   4771795.1978   1   7   0.0010   0.0005   0.0009  -0.0003  -0.0001   0.0006   0.00    9.2
2018/02/21 10:56:30.000   4208047.4315    228666.9631   4771795.1978   1   7   0.0010   0.0005   0.0009  -0.0003  -0.0001   0.0006   0.00    9.1
2018/02/21 10:57:00.000   4208047.4316    228666.9630   4771795.1979   1   7   0.0010   0.0005   0.0009  -0.0003  -0.0001   0.0006   0.00    9.1
2018/02/21 10:57:30.000   4208047.4316    228666.9630   4771795.1980   1   7   0.0010   0.0005   0.0009  -0.0003  -0.0001   0.0006   0.00    9.2
2018/02/21 10:58:00.000   4208047.4316    228666.9629   4771795.1980   1   7   0.0010   0.0005   0.0009  -0.0003  -0.0001   0.0006   0.00    9.4
2018/02/21 10:58:30.000   4208047.4316    228666.9628   4771795.1980   1   7   0.0010   0.0005   0.0009  -0.0003  -0.0001   0.0006   0.00    9.5
2018/02/21 10:59:00.000   4208047.4317    228666.9628   4771795.1981   1   7   0.0010   0.0005   0.0009  -0.0003  -0.0001   0.0006   0.00    9.2
2018/02/21 10:59:30.000   4208047.4316    228666.9627   4771795.1981   1   7   0.0010   0.0005   0.0009  -0.0003  -0.0000   0.0006   0.00    9.3
2018/02/21 11:00:00.000   4208047.4317    228666.9627   4771795.1982   1   7   0.0010   0.0005   0.0009  -0.0003  -0.0000   0.0006   0.00    9.5
2018/02/21 11:00:30.000   4208047.4317    228666.9626   4771795.1983   1   7   0.0009   0.0005   0.0009  -0.0003  -0.0000   0.0006   0.00    9.3
2018/02/21 11:01:00.000   4208047.4318    228666.9625   4771795.1983   1   7   0.0009   0.0005   0.0009  -0.0003  -0.0000   0.0006   0.00    9.5
2018/02/21 11:01:30.000   4208047.4318    228666.9624   4771795.1984   1   7   0.0009   0.0005   0.0009  -0.0003  -0.0000   0.0006   0.00    9.8
2018/02/21 11:02:00.000   4208047.4315    228666.9627   4771795.1984   1   7   0.0009   0.0005   0.0009  -0.0003   0.0000   0.0006   0.00   10.4
2018/02/21 11:02:30.000   4208047.4314    228666.9626   4771795.1984   1   7   0.0009   0.0005   0.0009  -0.0003   0.0000   0.0006   0.00   10.2
2018/02/21 11:03:00.000   4208047.4314    228666.9625   4771795.1985   1   7   0.0009   0.0005   0.0009  -0.0003   0.0000   0.0006   0.00   10.4
2018/02/21 11:03:30.000   4208047.4314    228666.9625   4771795.1985   1   7   0.0009   0.0005   0.0009  -0.0003   0.0000   0.0006   0.00   10.5
2018/02/21 11:04:00.000   4208047.4314    228666.9625   4771795.1986   1   7   0.0009   0.0005   0.0009  -0.0003   0.0000   0.0006   0.00   10.0
2018/02/21 11:04:30.000   4208047.4315    228666.9625   4771795.1987   1   7   0.0009   0.0005   0.0009  -0.0003   0.0001   0.0006   0.00    9.8
2018/02/21 11:05:00.000   4208047.4315    228666.9625   4771795.1987   1   7   0.0009   0.0005   0.0009  -0.0003   0.0001   0.0006   0.00   10.0
2018/02/21 11:05:30.000   4208047.4315    228666.9625   4771795.1988   1   7   0.0009   0.0005   0.0009  -0.0003   0.0001   0.0006   0.00   10.8
2018/02/21 11:06:00.000   4208047.4314    228666.9625   4771795.1988   1   7   0.0009   0.0005   0.0009  -0.0003   0.0001   0.0006   0.00   11.3
2018/02/21 11:06:30.000   4208047.4315    228666.9625   4771795.1988   1   7   0.0009   0.0005   0.0009  -0.0003   0.0001   0.0006   0.00   10.7
2018/02/21 11:07:00.000   4208047.4315    228666.9625   4771795.1988   1   7   0.0009   0.0005   0.0009  -0.0003   0.0001   0.0006   0.00   10.0
2018/02/21 11:07:30.000   4208047.4316    228666.9625   4771795.1989   1   7   0.0009   0.0005   0.0009  -0.0003   0.0001   0.0006   0.00   10.1
2018/02/21 11:08:00.000   4208047.4315    228666.9625   4771795.1989   1   7   0.0009   0.0005   0.0009  -0.0003   0.0001   0.0006   0.00   11.1
2018/02/21 11:08:30.000   4208047.4316    228666.9625   4771795.1989   1   7   0.0009   0.0005   0.0009  -0.0003   0.0001   0.0006   0.00    9.7
2018/02/21 11:09:00.000   4208047.4316    228666.9624   4771795.1989   1   7   0.0009   0.0005   0.0009  -0.0003   0.0001   0.0006   0.00    9.7
2018/02/21 11:09:30.000   4208047.4316    228666.9624   4771795.1990   1   7   0.0009   0.0005   0.0009  -0.0003   0.0001   0.0006   0.00   11.4
2018/02/21 11:10:00.000   4208047.4315    228666.9624   4771795.1990   1   7   0.0009   0.0005   0.0009  -0.0003   0.0001   0.0006   0.00   11.8
2018/02/21 11:10:30.000   4208047.4314    228666.9624   4771795.1990   1   7   0.0009   0.0005   0.0009  -0.0003   0.0001   0.0006   0.00   11.9
2018/02/21 11:11:00.000   4208047.4313    228666.9624   4771795.1990   1   7   0.0009   0.0005   0.0009  -0.0003   0.0001   0.0006   0.00   12.0
2018/02/21 11:11:30.000   4208047.4313    228666.9625   4771795.1990   1   7   0.0009   0.0005   0.0009  -0.0003   0.0001   0.0006   0.00   11.8
2018/02/21 11:12:00.000   4208047.4313    228666.9624   4771795.1990   1   7   0.0009   0.0005   0.0009  -0.0003   0.0001   0.0006   0.00   11.3
2018/02/21 11:12:30.000   4208047.4312    228666.9625   4771795.1990   1   7   0.0009   0.0005   0.0009  -0.0003   0.0001   0.0006   0.00   11.6
2018/02/21 11:13:00.000   4208047.4312    228666.9625   4771795.1990   1   7   0.0009   0.0005   0.0009  -0.0003   0.0001   0.0006   0.00   11.6
2018/02/21 11:13:30.000   4208047.4312    228666.9625   4771795.1990   1   7   0.0009   0.0005   0.0009  -0.0003   0.0001   0.0006   0.00   11.1
2018/02/21 11:14:00.000   4208047.4312    228666.9625   4771795.1990   1   7   0.0009   0.0005   0.0009  -0.0003   0.0001   0.0006   0.00   11.1
2018/02/21 11:14:30.000   4208047.4311    228666.9625   4771795.1991   1   7   0.0009   0.0005   0.0009  -0.0003   0.0001   0.0006   0.00   11.3
2018/02/21 11:15:00.000   4208047.4311    228666.9625   4771795.1991   1   7   0.0009   0.0005   0.0009  -0.0003   0.0001   0.0006   0.00   11.4
2018/02/21 11:15:30.000   4208047.4310    228666.9625   4771795.1990   1   7   0.0009   0.0005   0.0009  -0.0003   0.0001   0.0006   0.00   11.4
2018/02/21 11:16:00.000   4208047.4310    228666.9625   4771795.1990   1   7   0.0009   0.0005   0.0009  -0.0003   0.0001   0.0006   0.00   11.2
2018/02/21 11:16:30.000   4208047.4310    228666.9625   4771795.1990   1   7   0.0009   0.0005   0.0009  -0.0003   0.0001   0.0006   0.00   10.8
2018/02/21 11:17:00.000   4208047.4309    228666.9624   4771795.1990   1   7   0.0009   0.0005   0.0009  -0.0003   0.0001   0.0006   0.00   10.8
2018/02/21 11:17:30.000   4208047.4309    228666.9624   4771795.1989   1   7   0.0009   0.0005   0.0009  -0.0002   0.0001   0.0006   0.00   10.6
2018/02/21 11:18:00.000   4208047.4308    228666.9624   4771795.1989   1   7   0.0009   0.0005   0.0009  -0.0002   0.0001   0.0006   0.00   11.1
2018/02/21 11:18:30.000   4208047.4308    228666.9624   4771795.1989   1   7   0.0009   0.0005   0.0009  -0.0002   0.0001   0.0006   0.00   10.7
2018/02/21 11:19:00.000   4208047.4309    228666.9624   4771795.1988   1   7   0.0009   0.0005   0.0009  -0.0002   0.0001   0.0006   0.00    9.2
2018/02/21 11:19:30.000   4208047.4308    228666.9624   4771795.1988   1   7   0.0009   0.0005   0.0009  -0.0002   0.0001   0.0006   0.00    9.7
2018/02/21 11:20:00.000   4208047.4308    228666.9624   4771795.1987   1   7   0.0009   0.0005   0.0009  -0.0002   0.0001   0.0006   0.00    9.4
2018/02/21 11:20:30.000   4208047.4308    228666.9624   4771795.1987   1   7   0.0009   0.0005   0.0009  -0.0002   0.0001   0.0006   0.00    9.7
2018/02/21 11:21:00.000   4208047.4308    228666.9624   4771795.1987   1   7   0.0009   0.0005   0.0009  -0.0002   0.0001   0.0006   0.00   10.2
2018/02/21 11:21:30.000   4208047.4307    228666.9624   4771795.1988   1   7   0.0009   0.0005   0.0009  -0.0002   0.0001   0.0006   0.00   10.4
2018/02/21 11:22:00.000   4208047.4306    228666.9625   4771795.1988   1   7   0.0009   0.0005   0.0009  -0.0002   0.0001   0.0006   0.00   10.6
2018/02/21 11:22:30.000   4208047.4307    228666.9625   4771795.1988   1   7   0.0009   0.0005   0.0009  -0.0002   0.0001   0.0006   0.00    9.9
