% program   : RTKPOST-QT ver.2.4.3 b27
% inp file  : /home/prof/Projet_geodesieSGRUEL/21_03_2018/sxj6052z.18o
% inp file  : /home/prof/Projet_geodesieSGRUEL/52/momo052z.18o
% inp file  : /home/prof/Projet_geodesieSGRUEL/52/momo052z.18n
% inp file  : /home/prof/Projet_geodesieSGRUEL/21_03_2018/brdc052z.18n
% obs start : 2018/02/21 08:00:00.0 GPST (week1989 288000.0s)
% obs end   : 2018/02/21 16:59:30.0 GPST (week1989 320370.0s)
% pos mode  : static
% freqs     : L1+L2
% solution  : forward
% elev mask : 15.0 deg
% dynamics  : off
% tidecorr  : off
% ionos opt : broadcast
% tropo opt : saastamoinen
% ephemeris : broadcast
% amb res   : continuous
% val thres : 3.0
% antenna1  :                       ( 0.0000  0.0000  0.0000)
% antenna2  : TRM57971.00     NONE  ( 0.0000  0.0000  0.0000)
% ref pos   :  4140686.3130    106260.3200   4834180.0680
%
% (x/y/z-ecef=WGS84,Q=1:fix,2:float,3:sbas,4:dgps,5:single,6:ppp,ns=# of satellites)
%  GPST                      x-ecef(m)      y-ecef(m)      z-ecef(m)   Q  ns   sdx(m)   sdy(m)   sdz(m)  sdxy(m)  sdyz(m)  sdzx(m) age(s)  ratio
2018/02/21 08:00:00.000   4136504.8444     87780.3909   4838111.4877   2   7   0.9170   0.4302   0.9759  -0.2008  -0.2291   0.8141   0.00    2.5
2018/02/21 08:00:30.000   4136503.5515     87779.9426   4838110.8039   1   7   0.0066   0.0031   0.0070  -0.0014  -0.0016   0.0058   0.00    3.9
2018/02/21 08:01:00.000   4136503.5512     87779.9433   4838110.8051   1   7   0.0054   0.0025   0.0057  -0.0012  -0.0013   0.0048   0.00    5.2
2018/02/21 08:01:30.000   4136503.5510     87779.9445   4838110.8062   1   7   0.0046   0.0022   0.0050  -0.0010  -0.0012   0.0041   0.00    6.0
2018/02/21 08:02:00.000   4136503.5500     87779.9452   4838110.8044   1   7   0.0042   0.0019   0.0044  -0.0009  -0.0011   0.0037   0.00    6.9
2018/02/21 08:02:30.000   4136503.5495     87779.9453   4838110.8048   1   7   0.0038   0.0018   0.0041  -0.0008  -0.0010   0.0034   0.00    8.0
2018/02/21 08:03:00.000   4136503.5488     87779.9448   4838110.8039   1   7   0.0035   0.0016   0.0038  -0.0008  -0.0009   0.0031   0.00    9.9
2018/02/21 08:03:30.000   4136503.5490     87779.9443   4838110.8038   1   7   0.0033   0.0015   0.0035  -0.0007  -0.0008   0.0029   0.00   10.0
2018/02/21 08:04:00.000   4136503.5485     87779.9438   4838110.8032   1   7   0.0031   0.0014   0.0033  -0.0007  -0.0008   0.0028   0.00   11.1
2018/02/21 08:04:30.000   4136503.5485     87779.9436   4838110.8028   1   7   0.0030   0.0014   0.0032  -0.0007  -0.0008   0.0027   0.00   12.8
2018/02/21 08:05:00.000   4136503.5487     87779.9434   4838110.8022   1   7   0.0028   0.0013   0.0030  -0.0006  -0.0007   0.0025   0.00   12.8
2018/02/21 08:05:30.000   4136503.5486     87779.9432   4838110.8020   1   7   0.0027   0.0013   0.0029  -0.0006  -0.0007   0.0024   0.00   14.6
2018/02/21 08:06:00.000   4136503.5487     87779.9427   4838110.8020   1   7   0.0026   0.0012   0.0028  -0.0006  -0.0007   0.0023   0.00   15.4
2018/02/21 08:06:30.000   4136503.5483     87779.9429   4838110.8014   1   7   0.0025   0.0012   0.0027  -0.0006  -0.0007   0.0023   0.00   16.3
2018/02/21 08:07:00.000   4136503.5478     87779.9429   4838110.8008   1   7   0.0024   0.0011   0.0026  -0.0006  -0.0006   0.0022   0.00   17.9
2018/02/21 08:07:30.000   4136503.5470     87779.9429   4838110.8003   1   7   0.0024   0.0011   0.0026  -0.0005  -0.0006   0.0021   0.00   18.4
2018/02/21 08:08:00.000   4136503.5460     87779.9431   4838110.7997   1   7   0.0023   0.0011   0.0025  -0.0005  -0.0006   0.0021   0.00   19.0
2018/02/21 08:08:30.000   4136503.5453     87779.9431   4838110.7990   1   7   0.0022   0.0010   0.0024  -0.0005  -0.0006   0.0020   0.00   20.1
2018/02/21 08:09:00.000   4136503.5449     87779.9433   4838110.7983   1   7   0.0022   0.0010   0.0024  -0.0005  -0.0006   0.0020   0.00   20.7
2018/02/21 08:09:30.000   4136503.5444     87779.9434   4838110.7975   1   7   0.0021   0.0010   0.0023  -0.0005  -0.0006   0.0019   0.00   22.0
2018/02/21 08:10:00.000   4136503.5437     87779.9436   4838110.7968   1   7   0.0021   0.0009   0.0023  -0.0005  -0.0006   0.0019   0.00   23.2
2018/02/21 08:10:30.000   4136503.5433     87779.9437   4838110.7963   1   7   0.0020   0.0009   0.0022  -0.0005  -0.0006   0.0019   0.00   25.4
2018/02/21 08:11:00.000   4136503.5430     87779.9438   4838110.7961   1   7   0.0020   0.0009   0.0022  -0.0005  -0.0005   0.0018   0.00   27.9
2018/02/21 08:11:30.000   4136503.5430     87779.9440   4838110.7960   1   7   0.0019   0.0009   0.0022  -0.0005  -0.0005   0.0018   0.00   29.5
2018/02/21 08:12:00.000   4136503.5427     87779.9441   4838110.7958   1   7   0.0019   0.0009   0.0021  -0.0005  -0.0005   0.0018   0.00   31.6
2018/02/21 08:12:30.000   4136503.5426     87779.9442   4838110.7957   1   7   0.0019   0.0009   0.0021  -0.0004  -0.0005   0.0017   0.00   32.3
2018/02/21 08:13:00.000   4136503.5425     87779.9442   4838110.7959   1   7   0.0018   0.0008   0.0021  -0.0004  -0.0005   0.0017   0.00   32.3
2018/02/21 08:13:30.000   4136503.5427     87779.9442   4838110.7963   1   7   0.0018   0.0008   0.0020  -0.0004  -0.0005   0.0017   0.00   33.4
2018/02/21 08:14:00.000   4136503.5429     87779.9443   4838110.7968   1   7   0.0018   0.0008   0.0020  -0.0004  -0.0005   0.0017   0.00   33.7
2018/02/21 08:14:30.000   4136503.5431     87779.9445   4838110.7972   1   7   0.0018   0.0008   0.0020  -0.0004  -0.0005   0.0016   0.00   32.6
2018/02/21 08:15:00.000   4136503.5432     87779.9445   4838110.7975   1   7   0.0017   0.0008   0.0020  -0.0004  -0.0005   0.0016   0.00   33.3
2018/02/21 08:15:30.000   4136503.5435     87779.9445   4838110.7979   1   7   0.0017   0.0008   0.0019  -0.0004  -0.0005   0.0016   0.00   35.2
2018/02/21 08:16:00.000   4136503.5437     87779.9446   4838110.7982   1   7   0.0017   0.0008   0.0019  -0.0004  -0.0005   0.0016   0.00   36.6
2018/02/21 08:16:30.000   4136503.5433     87779.9447   4838110.7978   1   7   0.0017   0.0008   0.0019  -0.0004  -0.0005   0.0016   0.00   38.2
2018/02/21 08:17:00.000   4136503.5432     87779.9448   4838110.7979   1   7   0.0017   0.0007   0.0019  -0.0004  -0.0005   0.0015   0.00   37.8
2018/02/21 08:17:30.000   4136503.5432     87779.9448   4838110.7980   1   7   0.0016   0.0007   0.0019  -0.0004  -0.0005   0.0015   0.00   38.3
2018/02/21 08:18:00.000   4136503.5431     87779.9446   4838110.7977   1   7   0.0016   0.0007   0.0018  -0.0004  -0.0005   0.0015   0.00   40.6
2018/02/21 08:18:30.000   4136503.5431     87779.9446   4838110.7975   1   7   0.0016   0.0007   0.0018  -0.0004  -0.0005   0.0015   0.00   42.0
2018/02/21 08:19:00.000   4136503.5430     87779.9446   4838110.7972   1   7   0.0016   0.0007   0.0018  -0.0004  -0.0005   0.0015   0.00   42.9
2018/02/21 08:19:30.000   4136503.5431     87779.9444   4838110.7970   1   7   0.0016   0.0007   0.0018  -0.0004  -0.0005   0.0015   0.00   44.9
2018/02/21 08:20:00.000   4136503.5431     87779.9444   4838110.7970   1   7   0.0016   0.0007   0.0018  -0.0004  -0.0005   0.0015   0.00   46.7
2018/02/21 08:20:30.000   4136503.5433     87779.9443   4838110.7970   1   7   0.0015   0.0007   0.0018  -0.0004  -0.0005   0.0015   0.00   47.3
2018/02/21 08:21:00.000   4136503.5436     87779.9442   4838110.7972   1   7   0.0015   0.0007   0.0018  -0.0004  -0.0005   0.0014   0.00   46.7
2018/02/21 08:21:30.000   4136503.5438     87779.9441   4838110.7974   1   7   0.0015   0.0007   0.0017  -0.0004  -0.0005   0.0014   0.00   45.0
2018/02/21 08:22:00.000   4136503.5439     87779.9441   4838110.7974   1   7   0.0015   0.0007   0.0017  -0.0004  -0.0004   0.0014   0.00   44.4
2018/02/21 08:22:30.000   4136503.5438     87779.9441   4838110.7974   1   7   0.0015   0.0007   0.0017  -0.0004  -0.0004   0.0014   0.00   44.6
2018/02/21 08:23:00.000   4136503.5436     87779.9441   4838110.7974   1   7   0.0015   0.0007   0.0017  -0.0004  -0.0004   0.0014   0.00   45.3
2018/02/21 08:23:30.000   4136503.5436     87779.9442   4838110.7974   1   7   0.0015   0.0007   0.0017  -0.0004  -0.0004   0.0014   0.00   44.9
2018/02/21 08:24:00.000   4136503.5436     87779.9443   4838110.7975   1   7   0.0015   0.0007   0.0017  -0.0004  -0.0004   0.0014   0.00   45.1
2018/02/21 08:24:30.000   4136503.5434     87779.9443   4838110.7972   1   7   0.0015   0.0006   0.0017  -0.0004  -0.0004   0.0014   0.00   46.6
2018/02/21 08:25:00.000   4136503.5435     87779.9444   4838110.7972   1   7   0.0014   0.0006   0.0017  -0.0004  -0.0004   0.0014   0.00   47.3
2018/02/21 08:25:30.000   4136503.5435     87779.9444   4838110.7971   1   7   0.0014   0.0006   0.0017  -0.0004  -0.0004   0.0014   0.00   48.5
2018/02/21 08:26:00.000   4136503.5434     87779.9443   4838110.7970   1   7   0.0014   0.0006   0.0017  -0.0004  -0.0004   0.0014   0.00   50.2
2018/02/21 08:26:30.000   4136503.5432     87779.9443   4838110.7967   1   7   0.0014   0.0006   0.0017  -0.0004  -0.0004   0.0013   0.00   52.5
2018/02/21 08:27:00.000   4136503.5429     87779.9444   4838110.7965   1   7   0.0014   0.0006   0.0017  -0.0004  -0.0004   0.0013   0.00   54.8
2018/02/21 08:27:30.000   4136503.5426     87779.9443   4838110.7964   1   7   0.0014   0.0006   0.0016  -0.0004  -0.0004   0.0013   0.00   56.7
2018/02/21 08:28:00.000   4136503.5423     87779.9443   4838110.7964   1   7   0.0014   0.0006   0.0016  -0.0004  -0.0004   0.0013   0.00   59.2
2018/02/21 08:28:30.000   4136503.5421     87779.9443   4838110.7965   1   7   0.0014   0.0006   0.0016  -0.0004  -0.0004   0.0013   0.00   59.4
2018/02/21 08:29:00.000   4136503.5416     87779.9443   4838110.7963   1   7   0.0014   0.0006   0.0016  -0.0004  -0.0004   0.0013   0.00   60.5
2018/02/21 08:29:30.000   4136503.5413     87779.9443   4838110.7963   1   7   0.0014   0.0006   0.0016  -0.0004  -0.0004   0.0013   0.00   61.9
2018/02/21 08:30:00.000   4136503.5410     87779.9443   4838110.7962   1   7   0.0014   0.0006   0.0016  -0.0004  -0.0004   0.0013   0.00   62.7
2018/02/21 08:30:30.000   4136503.5408     87779.9443   4838110.7963   1   7   0.0014   0.0006   0.0016  -0.0003  -0.0004   0.0013   0.00   64.3
2018/02/21 08:31:00.000   4136503.5405     87779.9442   4838110.7962   1   7   0.0014   0.0006   0.0016  -0.0003  -0.0004   0.0013   0.00   65.9
2018/02/21 08:31:30.000   4136503.5403     87779.9442   4838110.7963   1   7   0.0013   0.0006   0.0016  -0.0003  -0.0004   0.0013   0.00   65.6
2018/02/21 08:32:00.000   4136503.5401     87779.9441   4838110.7964   1   7   0.0013   0.0006   0.0016  -0.0003  -0.0004   0.0013   0.00   64.6
2018/02/21 08:32:30.000   4136503.5399     87779.9441   4838110.7966   1   7   0.0013   0.0006   0.0016  -0.0003  -0.0004   0.0013   0.00   64.3
2018/02/21 08:33:00.000   4136503.5397     87779.9440   4838110.7967   1   7   0.0013   0.0006   0.0016  -0.0003  -0.0004   0.0013   0.00   63.5
2018/02/21 08:33:30.000   4136503.5396     87779.9440   4838110.7968   1   7   0.0013   0.0006   0.0016  -0.0003  -0.0004   0.0013   0.00   64.7
2018/02/21 08:34:00.000   4136503.5394     87779.9439   4838110.7968   1   7   0.0013   0.0006   0.0016  -0.0003  -0.0004   0.0013   0.00   65.4
2018/02/21 08:34:30.000   4136503.5393     87779.9438   4838110.7969   1   7   0.0013   0.0006   0.0016  -0.0003  -0.0004   0.0013   0.00   66.4
2018/02/21 08:35:00.000   4136503.5392     87779.9438   4838110.7969   1   7   0.0013   0.0006   0.0016  -0.0003  -0.0004   0.0013   0.00   66.6
2018/02/21 08:35:30.000   4136503.5391     87779.9438   4838110.7971   1   7   0.0013   0.0006   0.0016  -0.0003  -0.0004   0.0013   0.00   66.5
2018/02/21 08:36:00.000   4136503.5390     87779.9437   4838110.7971   1   7   0.0013   0.0006   0.0016  -0.0003  -0.0004   0.0013   0.00   67.8
2018/02/21 08:36:30.000   4136503.5389     87779.9437   4838110.7972   1   7   0.0013   0.0006   0.0016  -0.0003  -0.0004   0.0013   0.00   68.8
2018/02/21 08:37:00.000   4136503.5389     87779.9437   4838110.7970   1   7   0.0013   0.0006   0.0016  -0.0003  -0.0004   0.0013   0.00   69.9
2018/02/21 08:37:30.000   4136503.5389     87779.9437   4838110.7970   1   7   0.0013   0.0006   0.0016  -0.0003  -0.0004   0.0012   0.00   69.5
2018/02/21 08:38:00.000   4136503.5388     87779.9437   4838110.7970   1   7   0.0013   0.0006   0.0016  -0.0003  -0.0004   0.0012   0.00   69.9
2018/02/21 08:38:30.000   4136503.5389     87779.9437   4838110.7971   1   7   0.0013   0.0006   0.0015  -0.0003  -0.0004   0.0012   0.00   69.7
2018/02/21 08:39:00.000   4136503.5390     87779.9437   4838110.7971   1   7   0.0013   0.0006   0.0015  -0.0003  -0.0004   0.0012   0.00   70.0
2018/02/21 08:39:30.000   4136503.5390     87779.9437   4838110.7972   1   7   0.0013   0.0006   0.0015  -0.0003  -0.0004   0.0012   0.00   69.9
2018/02/21 08:40:00.000   4136503.5391     87779.9436   4838110.7973   1   7   0.0013   0.0006   0.0015  -0.0003  -0.0004   0.0012   0.00   71.2
2018/02/21 08:40:30.000   4136503.5392     87779.9436   4838110.7972   1   7   0.0013   0.0006   0.0015  -0.0003  -0.0004   0.0012   0.00   72.1
2018/02/21 08:41:00.000   4136503.5394     87779.9436   4838110.7974   1   7   0.0013   0.0006   0.0015  -0.0003  -0.0004   0.0012   0.00   72.5
2018/02/21 08:41:30.000   4136503.5395     87779.9436   4838110.7975   1   7   0.0013   0.0005   0.0015  -0.0003  -0.0004   0.0012   0.00   72.7
2018/02/21 08:42:00.000   4136503.5397     87779.9437   4838110.7977   1   7   0.0013   0.0005   0.0015  -0.0003  -0.0004   0.0012   0.00   72.8
2018/02/21 08:42:30.000   4136503.5399     87779.9437   4838110.7977   1   7   0.0012   0.0005   0.0015  -0.0003  -0.0004   0.0012   0.00   73.5
2018/02/21 08:43:00.000   4136503.5400     87779.9437   4838110.7977   1   7   0.0012   0.0005   0.0015  -0.0003  -0.0004   0.0012   0.00   74.3
2018/02/21 08:43:30.000   4136503.5402     87779.9437   4838110.7977   1   7   0.0012   0.0005   0.0015  -0.0003  -0.0004   0.0012   0.00   74.4
2018/02/21 08:44:00.000   4136503.5405     87779.9437   4838110.7979   1   7   0.0012   0.0005   0.0015  -0.0003  -0.0004   0.0012   0.00   74.8
2018/02/21 08:44:30.000   4136503.5406     87779.9437   4838110.7980   1   7   0.0012   0.0005   0.0015  -0.0003  -0.0004   0.0012   0.00   75.5
2018/02/21 08:45:00.000   4136503.5408     87779.9438   4838110.7982   1   7   0.0012   0.0005   0.0015  -0.0003  -0.0004   0.0012   0.00   76.8
2018/02/21 08:45:30.000   4136503.5409     87779.9438   4838110.7982   1   7   0.0012   0.0005   0.0015  -0.0003  -0.0004   0.0012   0.00   77.8
2018/02/21 08:46:00.000   4136503.5411     87779.9439   4838110.7984   1   7   0.0012   0.0005   0.0015  -0.0003  -0.0004   0.0012   0.00   78.2
2018/02/21 08:46:30.000   4136503.5413     87779.9439   4838110.7985   1   7   0.0012   0.0005   0.0015  -0.0003  -0.0004   0.0012   0.00   78.6
2018/02/21 08:47:00.000   4136503.5414     87779.9440   4838110.7986   1   7   0.0012   0.0005   0.0015  -0.0003  -0.0004   0.0012   0.00   79.2
2018/02/21 08:47:30.000   4136503.5415     87779.9440   4838110.7987   1   7   0.0012   0.0005   0.0015  -0.0003  -0.0004   0.0012   0.00   81.5
2018/02/21 08:48:00.000   4136503.5415     87779.9441   4838110.7987   1   7   0.0012   0.0005   0.0015  -0.0003  -0.0004   0.0012   0.00   84.6
2018/02/21 08:48:30.000   4136503.5484     87779.9416   4838110.8049   1   6   0.0020   0.0008   0.0020  -0.0010  -0.0010   0.0019   0.00  122.7
2018/02/21 08:49:00.000   4136503.5483     87779.9418   4838110.8049   1   6   0.0020   0.0008   0.0020  -0.0010  -0.0010   0.0019   0.00  124.7
2018/02/21 08:49:30.000   4136503.5482     87779.9419   4838110.8050   1   6   0.0020   0.0008   0.0020  -0.0010  -0.0010   0.0019   0.00  125.0
2018/02/21 08:50:00.000   4136503.5480     87779.9421   4838110.8049   1   6   0.0020   0.0008   0.0020  -0.0010  -0.0010   0.0019   0.00  126.5
2018/02/21 08:50:30.000   4136503.5479     87779.9423   4838110.8051   1   6   0.0019   0.0008   0.0020  -0.0010  -0.0009   0.0018   0.00  125.5
2018/02/21 08:51:00.000   4136503.5479     87779.9424   4838110.8052   1   6   0.0019   0.0008   0.0020  -0.0010  -0.0009   0.0018   0.00  125.8
2018/02/21 08:51:30.000   4136503.5480     87779.9424   4838110.8055   1   6   0.0019   0.0008   0.0020  -0.0010  -0.0009   0.0018   0.00  125.3
2018/02/21 08:52:00.000   4136503.5479     87779.9425   4838110.8056   1   6   0.0019   0.0008   0.0020  -0.0009  -0.0009   0.0018   0.00  124.7
2018/02/21 08:52:30.000   4136503.5479     87779.9426   4838110.8059   1   6   0.0019   0.0008   0.0020  -0.0009  -0.0009   0.0018   0.00  121.3
2018/02/21 08:53:00.000   4136503.5481     87779.9426   4838110.8064   1   6   0.0019   0.0007   0.0019  -0.0009  -0.0009   0.0018   0.00  117.7
2018/02/21 08:53:30.000   4136503.5481     87779.9426   4838110.8064   1   6   0.0019   0.0007   0.0019  -0.0009  -0.0009   0.0018   0.00  119.5
2018/02/21 08:54:00.000   4136503.5481     87779.9426   4838110.8066   1   6   0.0019   0.0007   0.0019  -0.0009  -0.0009   0.0018   0.00  120.0
2018/02/21 08:54:30.000   4136503.5480     87779.9426   4838110.8066   1   6   0.0019   0.0007   0.0019  -0.0009  -0.0009   0.0018   0.00  122.4
2018/02/21 08:55:00.000   4136503.5481     87779.9425   4838110.8068   1   6   0.0018   0.0007   0.0019  -0.0009  -0.0009   0.0018   0.00  124.1
2018/02/21 08:55:30.000   4136503.5482     87779.9425   4838110.8070   1   6   0.0018   0.0007   0.0019  -0.0009  -0.0009   0.0017   0.00  121.8
2018/02/21 08:56:00.000   4136503.5486     87779.9424   4838110.8076   1   6   0.0018   0.0007   0.0019  -0.0009  -0.0009   0.0017   0.00  117.1
2018/02/21 08:56:30.000   4136503.5487     87779.9423   4838110.8080   1   6   0.0018   0.0007   0.0019  -0.0009  -0.0009   0.0017   0.00  115.7
2018/02/21 08:57:00.000   4136503.5488     87779.9423   4838110.8082   1   6   0.0018   0.0007   0.0019  -0.0009  -0.0009   0.0017   0.00  115.0
2018/02/21 08:57:30.000   4136503.5489     87779.9423   4838110.8084   1   6   0.0018   0.0007   0.0018  -0.0009  -0.0008   0.0017   0.00  114.8
2018/02/21 08:58:00.000   4136503.5491     87779.9422   4838110.8085   1   6   0.0018   0.0007   0.0018  -0.0009  -0.0008   0.0017   0.00  117.1
2018/02/21 08:58:30.000   4136503.5491     87779.9421   4838110.8086   1   6   0.0018   0.0007   0.0018  -0.0008  -0.0008   0.0017   0.00  120.8
2018/02/21 08:59:00.000   4136503.5491     87779.9420   4838110.8085   1   6   0.0018   0.0007   0.0018  -0.0008  -0.0008   0.0017   0.00  124.6
2018/02/21 08:59:30.000   4136503.5491     87779.9420   4838110.8086   1   6   0.0018   0.0007   0.0018  -0.0008  -0.0008   0.0016   0.00  124.8
2018/02/21 09:00:00.000   4136503.5491     87779.9421   4838110.8088   1   6   0.0017   0.0007   0.0018  -0.0008  -0.0008   0.0016   0.00  124.2
2018/02/21 09:00:30.000   4136503.5491     87779.9422   4838110.8088   1   6   0.0017   0.0007   0.0018  -0.0008  -0.0008   0.0016   0.00  123.4
2018/02/21 09:01:00.000   4136503.5492     87779.9423   4838110.8089   1   6   0.0017   0.0007   0.0018  -0.0008  -0.0008   0.0016   0.00  124.0
2018/02/21 09:01:30.000   4136503.5492     87779.9424   4838110.8090   1   6   0.0017   0.0007   0.0018  -0.0008  -0.0008   0.0016   0.00  126.4
2018/02/21 09:02:00.000   4136503.5494     87779.9424   4838110.8090   1   6   0.0017   0.0007   0.0017  -0.0008  -0.0008   0.0016   0.00  130.7
2018/02/21 09:02:30.000   4136503.5495     87779.9426   4838110.8091   1   6   0.0017   0.0007   0.0017  -0.0008  -0.0008   0.0016   0.00  131.9
2018/02/21 09:03:00.000   4136503.5498     87779.9426   4838110.8093   1   6   0.0017   0.0007   0.0017  -0.0008  -0.0008   0.0016   0.00  132.1
2018/02/21 09:03:30.000   4136503.5500     87779.9427   4838110.8095   1   6   0.0017   0.0007   0.0017  -0.0008  -0.0008   0.0015   0.00  130.7
2018/02/21 09:04:00.000   4136503.5502     87779.9427   4838110.8097   1   6   0.0017   0.0007   0.0017  -0.0008  -0.0007   0.0015   0.00  131.1
2018/02/21 09:04:30.000   4136503.5506     87779.9427   4838110.8100   1   6   0.0016   0.0007   0.0017  -0.0007  -0.0007   0.0015   0.00  130.5
2018/02/21 09:05:00.000   4136503.5508     87779.9427   4838110.8103   1   6   0.0016   0.0007   0.0017  -0.0007  -0.0007   0.0015   0.00  131.1
2018/02/21 09:05:30.000   4136503.5512     87779.9427   4838110.8106   1   6   0.0016   0.0007   0.0017  -0.0007  -0.0007   0.0015   0.00  128.7
2018/02/21 09:06:00.000   4136503.5517     87779.9426   4838110.8111   1   6   0.0016   0.0007   0.0016  -0.0007  -0.0007   0.0015   0.00  126.9
2018/02/21 09:06:30.000   4136503.5520     87779.9426   4838110.8113   1   6   0.0016   0.0007   0.0016  -0.0007  -0.0007   0.0015   0.00  126.9
2018/02/21 09:07:00.000   4136503.5523     87779.9426   4838110.8115   1   6   0.0016   0.0006   0.0016  -0.0007  -0.0007   0.0015   0.00  126.9
2018/02/21 09:07:30.000   4136503.5525     87779.9426   4838110.8117   1   6   0.0016   0.0006   0.0016  -0.0007  -0.0007   0.0015   0.00  126.3
2018/02/21 09:08:00.000   4136503.5527     87779.9426   4838110.8118   1   6   0.0016   0.0006   0.0016  -0.0007  -0.0007   0.0014   0.00  125.9
2018/02/21 09:08:30.000   4136503.5528     87779.9426   4838110.8119   1   6   0.0016   0.0006   0.0016  -0.0007  -0.0007   0.0014   0.00  125.7
2018/02/21 09:09:00.000   4136503.5529     87779.9426   4838110.8120   1   6   0.0016   0.0006   0.0016  -0.0007  -0.0007   0.0014   0.00  125.4
2018/02/21 09:09:30.000   4136503.5437     87779.9608   4838110.8090   2   7   0.0034   0.0051   0.0019   0.0025   0.0011   0.0015   0.00    1.9
2018/02/21 09:10:00.000   4136503.5436     87779.9602   4838110.8089   2   7   0.0034   0.0050   0.0019   0.0024   0.0011   0.0015   0.00    2.9
2018/02/21 09:10:30.000   4136503.5531     87779.9425   4838110.8122   1   7   0.0015   0.0006   0.0015  -0.0007  -0.0006   0.0014   0.00    3.9
2018/02/21 09:11:00.000   4136503.5534     87779.9425   4838110.8124   1   7   0.0015   0.0006   0.0015  -0.0006  -0.0006   0.0014   0.00    4.9
2018/02/21 09:11:30.000   4136503.5535     87779.9425   4838110.8125   1   7   0.0015   0.0006   0.0015  -0.0006  -0.0006   0.0013   0.00    5.9
2018/02/21 09:12:00.000   4136503.5535     87779.9426   4838110.8126   1   7   0.0015   0.0006   0.0015  -0.0006  -0.0006   0.0013   0.00    7.0
2018/02/21 09:12:30.000   4136503.5537     87779.9426   4838110.8128   1   7   0.0015   0.0006   0.0015  -0.0006  -0.0006   0.0013   0.00    8.1
2018/02/21 09:13:00.000   4136503.5538     87779.9426   4838110.8130   1   7   0.0015   0.0006   0.0015  -0.0006  -0.0006   0.0013   0.00    9.1
2018/02/21 09:13:30.000   4136503.5538     87779.9427   4838110.8131   1   7   0.0015   0.0006   0.0014  -0.0006  -0.0006   0.0013   0.00   10.1
2018/02/21 09:14:00.000   4136503.5540     87779.9427   4838110.8133   1   7   0.0015   0.0006   0.0014  -0.0006  -0.0006   0.0013   0.00   11.1
2018/02/21 09:14:30.000   4136503.5540     87779.9427   4838110.8135   1   7   0.0014   0.0006   0.0014  -0.0006  -0.0006   0.0013   0.00   12.0
2018/02/21 09:15:00.000   4136503.5540     87779.9428   4838110.8136   1   7   0.0014   0.0006   0.0014  -0.0006  -0.0006   0.0013   0.00   12.8
2018/02/21 09:15:30.000   4136503.5540     87779.9429   4838110.8138   1   7   0.0014   0.0006   0.0014  -0.0006  -0.0006   0.0012   0.00   13.6
2018/02/21 09:16:00.000   4136503.5539     87779.9430   4838110.8139   1   7   0.0014   0.0006   0.0014  -0.0006  -0.0006   0.0012   0.00   14.3
2018/02/21 09:16:30.000   4136503.5539     87779.9432   4838110.8140   1   7   0.0014   0.0006   0.0014  -0.0006  -0.0006   0.0012   0.00   14.9
2018/02/21 09:17:00.000   4136503.5538     87779.9433   4838110.8141   1   7   0.0014   0.0006   0.0014  -0.0006  -0.0006   0.0012   0.00   15.6
2018/02/21 09:17:30.000   4136503.5538     87779.9432   4838110.8142   1   7   0.0014   0.0006   0.0014  -0.0006  -0.0006   0.0012   0.00   16.4
2018/02/21 09:18:00.000   4136503.5538     87779.9433   4838110.8144   1   7   0.0014   0.0006   0.0013  -0.0006  -0.0006   0.0012   0.00   16.7
2018/02/21 09:18:30.000   4136503.5538     87779.9434   4838110.8145   1   7   0.0014   0.0006   0.0013  -0.0006  -0.0006   0.0012   0.00   17.1
2018/02/21 09:19:00.000   4136503.5539     87779.9434   4838110.8147   1   7   0.0014   0.0006   0.0013  -0.0005  -0.0006   0.0012   0.00   17.8
2018/02/21 09:19:30.000   4136503.5540     87779.9433   4838110.8148   1   7   0.0014   0.0006   0.0013  -0.0005  -0.0005   0.0012   0.00   18.7
2018/02/21 09:20:00.000   4136503.5540     87779.9433   4838110.8149   1   7   0.0014   0.0006   0.0013  -0.0005  -0.0005   0.0011   0.00   19.7
2018/02/21 09:20:30.000   4136503.5541     87779.9432   4838110.8150   1   7   0.0014   0.0006   0.0013  -0.0005  -0.0005   0.0011   0.00   21.2
2018/02/21 09:21:00.000   4136503.5543     87779.9431   4838110.8152   1   7   0.0013   0.0006   0.0013  -0.0005  -0.0005   0.0011   0.00   22.3
2018/02/21 09:21:30.000   4136503.5545     87779.9430   4838110.8154   1   7   0.0013   0.0006   0.0013  -0.0005  -0.0005   0.0011   0.00   23.7
2018/02/21 09:22:00.000   4136503.5546     87779.9428   4838110.8136   1   6   0.0013   0.0006   0.0014  -0.0005  -0.0005   0.0011   0.00   27.1
2018/02/21 09:22:30.000   4136503.5546     87779.9428   4838110.8138   1   6   0.0013   0.0006   0.0014  -0.0005  -0.0005   0.0011   0.00   28.6
2018/02/21 09:23:00.000   4136503.5547     87779.9427   4838110.8140   1   6   0.0013   0.0006   0.0014  -0.0005  -0.0005   0.0011   0.00   30.2
2018/02/21 09:23:30.000   4136503.5548     87779.9426   4838110.8142   1   6   0.0013   0.0006   0.0014  -0.0005  -0.0005   0.0011   0.00   32.0
2018/02/21 09:24:00.000   4136503.5548     87779.9427   4838110.8143   1   6   0.0013   0.0006   0.0014  -0.0005  -0.0005   0.0011   0.00   32.8
2018/02/21 09:24:30.000   4136503.5547     87779.9427   4838110.8144   1   6   0.0013   0.0006   0.0014  -0.0005  -0.0005   0.0011   0.00   34.1
2018/02/21 09:25:00.000   4136503.5545     87779.9427   4838110.8145   1   6   0.0013   0.0006   0.0013  -0.0005  -0.0005   0.0011   0.00   35.9
2018/02/21 09:25:30.000   4136503.5543     87779.9426   4838110.8144   1   6   0.0013   0.0006   0.0013  -0.0005  -0.0005   0.0010   0.00   38.1
2018/02/21 09:26:00.000   4136503.5542     87779.9426   4838110.8144   1   6   0.0013   0.0006   0.0013  -0.0005  -0.0005   0.0010   0.00   39.9
2018/02/21 09:26:30.000   4136503.5540     87779.9427   4838110.8145   1   6   0.0013   0.0006   0.0013  -0.0005  -0.0005   0.0010   0.00   41.3
2018/02/21 09:27:00.000   4136503.5538     87779.9428   4838110.8145   1   6   0.0013   0.0006   0.0013  -0.0005  -0.0005   0.0010   0.00   42.7
2018/02/21 09:27:30.000   4136503.5536     87779.9428   4838110.8145   1   6   0.0013   0.0006   0.0013  -0.0005  -0.0005   0.0010   0.00   43.5
2018/02/21 09:28:00.000   4136503.5536     87779.9429   4838110.8145   1   6   0.0013   0.0006   0.0013  -0.0005  -0.0005   0.0010   0.00   45.0
2018/02/21 09:28:30.000   4136503.5535     87779.9429   4838110.8145   1   6   0.0013   0.0006   0.0013  -0.0005  -0.0005   0.0010   0.00   46.5
2018/02/21 09:29:00.000   4136503.5534     87779.9429   4838110.8146   1   6   0.0013   0.0006   0.0013  -0.0004  -0.0005   0.0010   0.00   47.3
2018/02/21 09:29:30.000   4136503.5534     87779.9429   4838110.8147   1   6   0.0013   0.0006   0.0013  -0.0004  -0.0005   0.0010   0.00   47.8
2018/02/21 09:30:00.000   4136503.5533     87779.9430   4838110.8147   1   6   0.0013   0.0006   0.0013  -0.0004  -0.0005   0.0010   0.00   49.4
2018/02/21 09:30:30.000   4136503.5533     87779.9430   4838110.8147   1   6   0.0013   0.0006   0.0013  -0.0004  -0.0005   0.0010   0.00   51.2
2018/02/21 09:31:00.000   4136503.5532     87779.9430   4838110.8145   1   6   0.0012   0.0006   0.0012  -0.0004  -0.0005   0.0010   0.00   54.1
2018/02/21 09:31:30.000   4136503.5531     87779.9429   4838110.8144   1   6   0.0012   0.0006   0.0012  -0.0004  -0.0005   0.0009   0.00   57.8
2018/02/21 09:32:00.000   4136503.5531     87779.9429   4838110.8143   1   6   0.0012   0.0006   0.0012  -0.0004  -0.0005   0.0009   0.00   60.8
2018/02/21 09:32:30.000   4136503.5530     87779.9430   4838110.8141   1   6   0.0012   0.0006   0.0012  -0.0004  -0.0005   0.0009   0.00   63.6
2018/02/21 09:33:00.000   4136503.5529     87779.9430   4838110.8139   1   6   0.0012   0.0006   0.0012  -0.0004  -0.0005   0.0009   0.00   66.9
2018/02/21 09:33:30.000   4136503.5529     87779.9431   4838110.8139   1   6   0.0012   0.0006   0.0012  -0.0004  -0.0004   0.0009   0.00   68.5
2018/02/21 09:34:00.000   4136503.5528     87779.9431   4838110.8140   1   6   0.0012   0.0005   0.0012  -0.0004  -0.0004   0.0009   0.00   69.3
2018/02/21 09:34:30.000   4136503.5528     87779.9432   4838110.8140   1   6   0.0012   0.0005   0.0012  -0.0004  -0.0004   0.0009   0.00   70.7
2018/02/21 09:35:00.000   4136503.5527     87779.9433   4838110.8140   1   6   0.0012   0.0005   0.0012  -0.0004  -0.0004   0.0009   0.00   71.5
2018/02/21 09:35:30.000   4136503.5526     87779.9434   4838110.8140   1   6   0.0012   0.0005   0.0012  -0.0004  -0.0004   0.0009   0.00   72.8
2018/02/21 09:36:00.000   4136503.5526     87779.9434   4838110.8141   1   6   0.0012   0.0005   0.0012  -0.0004  -0.0004   0.0009   0.00   73.6
2018/02/21 09:36:30.000   4136503.5526     87779.9434   4838110.8141   1   6   0.0012   0.0005   0.0012  -0.0004  -0.0004   0.0009   0.00   75.6
2018/02/21 09:37:00.000   4136503.5525     87779.9434   4838110.8142   1   6   0.0012   0.0005   0.0012  -0.0004  -0.0004   0.0009   0.00   76.6
2018/02/21 09:37:30.000   4136503.5525     87779.9435   4838110.8142   1   6   0.0012   0.0005   0.0012  -0.0004  -0.0004   0.0009   0.00   77.6
2018/02/21 09:38:00.000   4136503.5525     87779.9435   4838110.8142   1   6   0.0012   0.0005   0.0012  -0.0004  -0.0004   0.0008   0.00   78.1
2018/02/21 09:38:30.000   4136503.5524     87779.9436   4838110.8142   1   6   0.0012   0.0005   0.0011  -0.0004  -0.0004   0.0008   0.00   78.9
2018/02/21 09:39:00.000   4136503.5523     87779.9437   4838110.8143   1   6   0.0012   0.0005   0.0011  -0.0004  -0.0004   0.0008   0.00   78.1
2018/02/21 09:39:30.000   4136503.5521     87779.9438   4838110.8144   1   6   0.0012   0.0005   0.0011  -0.0004  -0.0004   0.0008   0.00   77.1
2018/02/21 09:40:00.000   4136503.5519     87779.9439   4838110.8143   1   6   0.0012   0.0005   0.0011  -0.0004  -0.0004   0.0008   0.00   76.8
2018/02/21 09:40:30.000   4136503.5517     87779.9440   4838110.8143   1   6   0.0012   0.0005   0.0011  -0.0003  -0.0004   0.0008   0.00   77.0
2018/02/21 09:41:00.000   4136503.5517     87779.9441   4838110.8144   1   6   0.0012   0.0005   0.0011  -0.0003  -0.0004   0.0008   0.00   77.5
2018/02/21 09:41:30.000   4136503.5514     87779.9442   4838110.8144   1   6   0.0012   0.0005   0.0011  -0.0003  -0.0004   0.0008   0.00   78.4
2018/02/21 09:42:00.000   4136503.5511     87779.9443   4838110.8143   1   6   0.0012   0.0005   0.0011  -0.0003  -0.0004   0.0008   0.00   78.9
2018/02/21 09:42:30.000   4136503.5508     87779.9444   4838110.8142   1   6   0.0012   0.0005   0.0011  -0.0003  -0.0004   0.0008   0.00   79.4
2018/02/21 09:43:00.000   4136503.5507     87779.9444   4838110.8142   1   6   0.0012   0.0005   0.0011  -0.0003  -0.0004   0.0008   0.00   80.7
2018/02/21 09:43:30.000   4136503.5505     87779.9444   4838110.8141   1   6   0.0012   0.0005   0.0011  -0.0003  -0.0004   0.0008   0.00   81.9
2018/02/21 09:44:00.000   4136503.5503     87779.9444   4838110.8140   1   6   0.0012   0.0005   0.0011  -0.0003  -0.0004   0.0008   0.00   83.4
2018/02/21 09:44:30.000   4136503.5501     87779.9445   4838110.8140   1   6   0.0012   0.0005   0.0011  -0.0003  -0.0004   0.0008   0.00   83.7
2018/02/21 09:45:00.000   4136503.5500     87779.9446   4838110.8138   1   6   0.0012   0.0005   0.0011  -0.0003  -0.0004   0.0008   0.00   84.8
2018/02/21 09:45:30.000   4136503.5499     87779.9446   4838110.8137   1   6   0.0012   0.0005   0.0011  -0.0003  -0.0004   0.0008   0.00   86.7
2018/02/21 09:46:00.000   4136503.5499     87779.9446   4838110.8136   1   6   0.0012   0.0005   0.0011  -0.0003  -0.0004   0.0007   0.00   88.8
2018/02/21 09:46:30.000   4136503.5497     87779.9447   4838110.8135   1   6   0.0012   0.0005   0.0011  -0.0003  -0.0004   0.0007   0.00   89.7
2018/02/21 09:47:00.000   4136503.5496     87779.9449   4838110.8134   1   6   0.0012   0.0005   0.0011  -0.0003  -0.0004   0.0007   0.00   89.5
2018/02/21 09:47:30.000   4136503.5496     87779.9449   4838110.8133   1   6   0.0012   0.0005   0.0011  -0.0003  -0.0004   0.0007   0.00   90.5
2018/02/21 09:48:00.000   4136503.5495     87779.9450   4838110.8133   1   6   0.0012   0.0005   0.0010  -0.0003  -0.0004   0.0007   0.00   91.7
2018/02/21 09:48:30.000   4136503.5494     87779.9451   4838110.8131   1   6   0.0012   0.0005   0.0010  -0.0003  -0.0004   0.0007   0.00   92.8
2018/02/21 09:49:00.000   4136503.5493     87779.9453   4838110.8130   1   6   0.0012   0.0005   0.0010  -0.0003  -0.0004   0.0007   0.00   93.6
2018/02/21 09:49:30.000   4136503.5492     87779.9454   4838110.8129   1   6   0.0012   0.0005   0.0010  -0.0003  -0.0004   0.0007   0.00   93.8
2018/02/21 09:50:00.000   4136503.5492     87779.9455   4838110.8128   1   6   0.0012   0.0005   0.0010  -0.0003  -0.0004   0.0007   0.00   95.7
2018/02/21 09:50:30.000   4136503.5462     87779.9712   4838110.8086   2   7   0.0019   0.0036   0.0013   0.0008   0.0005   0.0010   0.00    1.8
2018/02/21 09:51:00.000   4136503.5462     87779.9711   4838110.8084   2   7   0.0019   0.0036   0.0013   0.0008   0.0005   0.0010   0.00    2.7
2018/02/21 09:51:30.000   4136503.5491     87779.9456   4838110.8126   1   7   0.0012   0.0005   0.0010  -0.0002  -0.0004   0.0007   0.00    3.5
2018/02/21 09:52:00.000   4136503.5489     87779.9457   4838110.8124   1   7   0.0012   0.0005   0.0010  -0.0002  -0.0004   0.0007   0.00    4.4
2018/02/21 09:52:30.000   4136503.5489     87779.9458   4838110.8123   1   7   0.0012   0.0005   0.0010  -0.0002  -0.0004   0.0007   0.00    5.3
2018/02/21 09:53:00.000   4136503.5490     87779.9458   4838110.8123   1   7   0.0012   0.0005   0.0010  -0.0002  -0.0004   0.0007   0.00    6.1
2018/02/21 09:53:30.000   4136503.5490     87779.9459   4838110.8122   1   7   0.0012   0.0005   0.0010  -0.0002  -0.0004   0.0007   0.00    7.1
2018/02/21 09:54:00.000   4136503.5489     87779.9460   4838110.8120   1   7   0.0012   0.0005   0.0010  -0.0002  -0.0004   0.0007   0.00    8.0
2018/02/21 09:54:30.000   4136503.5489     87779.9461   4838110.8119   1   7   0.0012   0.0005   0.0010  -0.0002  -0.0004   0.0007   0.00    8.8
2018/02/21 09:55:00.000   4136503.5489     87779.9461   4838110.8119   1   7   0.0012   0.0005   0.0010  -0.0002  -0.0004   0.0007   0.00    9.8
2018/02/21 09:55:30.000   4136503.5490     87779.9462   4838110.8117   1   7   0.0012   0.0005   0.0010  -0.0002  -0.0003   0.0007   0.00   10.7
2018/02/21 09:56:00.000   4136503.5489     87779.9463   4838110.8117   1   7   0.0012   0.0005   0.0010  -0.0002  -0.0003   0.0006   0.00   11.7
2018/02/21 09:56:30.000   4136503.5488     87779.9463   4838110.8117   1   7   0.0012   0.0005   0.0010  -0.0002  -0.0003   0.0006   0.00   12.6
2018/02/21 09:57:00.000   4136503.5488     87779.9463   4838110.8118   1   7   0.0012   0.0005   0.0009  -0.0002  -0.0003   0.0006   0.00   13.7
2018/02/21 09:57:30.000   4136503.5488     87779.9463   4838110.8117   1   7   0.0012   0.0005   0.0009  -0.0002  -0.0003   0.0006   0.00   14.7
2018/02/21 09:58:00.000   4136503.5486     87779.9464   4838110.8116   1   7   0.0012   0.0005   0.0009  -0.0002  -0.0003   0.0006   0.00   15.7
2018/02/21 09:58:30.000   4136503.5485     87779.9464   4838110.8115   1   7   0.0012   0.0005   0.0009  -0.0002  -0.0003   0.0006   0.00   16.9
2018/02/21 09:59:00.000   4136503.5483     87779.9464   4838110.8114   1   7   0.0012   0.0005   0.0009  -0.0001  -0.0003   0.0006   0.00   18.2
2018/02/21 09:59:30.000   4136503.5482     87779.9464   4838110.8113   1   7   0.0012   0.0005   0.0009  -0.0001  -0.0003   0.0006   0.00   19.3
2018/02/21 10:00:00.000   4136503.5482     87779.9464   4838110.8114   1   7   0.0012   0.0005   0.0009  -0.0001  -0.0003   0.0006   0.00   20.6
2018/02/21 10:00:30.000   4136503.5481     87779.9464   4838110.8114   1   7   0.0012   0.0005   0.0009  -0.0001  -0.0003   0.0006   0.00   21.8
2018/02/21 10:01:00.000   4136503.5457     87779.9724   4838110.8073   2   8   0.0017   0.0035   0.0012   0.0006   0.0004   0.0009   0.00    1.8
2018/02/21 10:01:30.000   4136503.5456     87779.9724   4838110.8073   2   8   0.0017   0.0035   0.0012   0.0006   0.0004   0.0009   0.00    2.6
2018/02/21 10:02:00.000   4136503.5482     87779.9465   4838110.8115   1   8   0.0011   0.0005   0.0009  -0.0001  -0.0003   0.0006   0.00    3.5
2018/02/21 10:02:30.000   4136503.5482     87779.9465   4838110.8115   1   8   0.0011   0.0005   0.0009  -0.0001  -0.0003   0.0006   0.00    4.6
2018/02/21 10:03:00.000   4136503.5480     87779.9465   4838110.8115   1   8   0.0011   0.0005   0.0009  -0.0001  -0.0003   0.0006   0.00    5.4
2018/02/21 10:03:30.000   4136503.5480     87779.9466   4838110.8115   1   8   0.0011   0.0005   0.0009  -0.0001  -0.0003   0.0006   0.00    6.3
2018/02/21 10:04:00.000   4136503.5480     87779.9466   4838110.8114   1   8   0.0011   0.0005   0.0009  -0.0001  -0.0003   0.0006   0.00    7.1
2018/02/21 10:04:30.000   4136503.5479     87779.9466   4838110.8114   1   8   0.0011   0.0005   0.0009  -0.0001  -0.0003   0.0006   0.00    8.3
2018/02/21 10:05:00.000   4136503.5477     87779.9467   4838110.8112   1   8   0.0011   0.0005   0.0009  -0.0001  -0.0003   0.0006   0.00    9.2
2018/02/21 10:05:30.000   4136503.5476     87779.9468   4838110.8111   1   8   0.0011   0.0005   0.0009  -0.0001  -0.0003   0.0006   0.00   10.2
2018/02/21 10:06:00.000   4136503.5474     87779.9469   4838110.8110   1   8   0.0011   0.0005   0.0009  -0.0001  -0.0003   0.0006   0.00   11.1
2018/02/21 10:06:30.000   4136503.5473     87779.9470   4838110.8109   1   8   0.0011   0.0005   0.0009  -0.0001  -0.0003   0.0006   0.00   12.1
2018/02/21 10:07:00.000   4136503.5473     87779.9471   4838110.8108   1   8   0.0011   0.0005   0.0009  -0.0001  -0.0003   0.0006   0.00   12.9
2018/02/21 10:07:30.000   4136503.5472     87779.9472   4838110.8104   1   8   0.0011   0.0005   0.0009  -0.0001  -0.0003   0.0006   0.00   13.7
2018/02/21 10:08:00.000   4136503.5471     87779.9474   4838110.8102   1   8   0.0011   0.0005   0.0009  -0.0001  -0.0003   0.0006   0.00   14.3
2018/02/21 10:08:30.000   4136503.5471     87779.9474   4838110.8102   1   8   0.0011   0.0005   0.0009  -0.0001  -0.0003   0.0006   0.00   15.1
2018/02/21 10:09:00.000   4136503.5470     87779.9475   4838110.8101   1   8   0.0011   0.0005   0.0009  -0.0001  -0.0003   0.0006   0.00   15.7
2018/02/21 10:09:30.000   4136503.5470     87779.9476   4838110.8099   1   8   0.0011   0.0005   0.0008  -0.0001  -0.0003   0.0006   0.00   16.4
2018/02/21 10:10:00.000   4136503.5469     87779.9477   4838110.8098   1   8   0.0011   0.0005   0.0008  -0.0001  -0.0003   0.0006   0.00   17.0
2018/02/21 10:10:30.000   4136503.5473     87779.9471   4838110.8085   1   7   0.0011   0.0005   0.0009  -0.0002  -0.0001   0.0005   0.00   19.5
2018/02/21 10:11:00.000   4136503.5472     87779.9471   4838110.8085   1   7   0.0011   0.0005   0.0009  -0.0002  -0.0001   0.0005   0.00   20.5
2018/02/21 10:11:30.000   4136503.5471     87779.9471   4838110.8084   1   7   0.0011   0.0005   0.0009  -0.0002  -0.0001   0.0005   0.00   21.4
2018/02/21 10:12:00.000   4136503.5471     87779.9472   4838110.8083   1   7   0.0011   0.0005   0.0009  -0.0002  -0.0001   0.0005   0.00   21.9
2018/02/21 10:12:30.000   4136503.5470     87779.9472   4838110.8082   1   7   0.0011   0.0005   0.0009  -0.0002  -0.0001   0.0005   0.00   22.7
2018/02/21 10:13:00.000   4136503.5471     87779.9472   4838110.8081   1   7   0.0011   0.0005   0.0009  -0.0002  -0.0001   0.0005   0.00   23.5
2018/02/21 10:13:30.000   4136503.5470     87779.9473   4838110.8079   1   7   0.0011   0.0005   0.0009  -0.0002  -0.0001   0.0005   0.00   24.5
2018/02/21 10:14:00.000   4136503.5470     87779.9473   4838110.8078   1   7   0.0010   0.0005   0.0009  -0.0002  -0.0001   0.0005   0.00   25.3
2018/02/21 10:14:30.000   4136503.5470     87779.9473   4838110.8078   1   7   0.0010   0.0005   0.0009  -0.0002  -0.0000   0.0005   0.00   26.5
2018/02/21 10:15:00.000   4136503.5470     87779.9474   4838110.8079   1   7   0.0010   0.0005   0.0009  -0.0002  -0.0000   0.0005   0.00   27.4
2018/02/21 10:15:30.000   4136503.5471     87779.9474   4838110.8079   1   7   0.0010   0.0005   0.0009  -0.0002  -0.0000   0.0005   0.00   28.2
2018/02/21 10:16:00.000   4136503.5472     87779.9475   4838110.8079   1   7   0.0010   0.0005   0.0009  -0.0002   0.0000   0.0005   0.00   28.8
2018/02/21 10:16:30.000   4136503.5473     87779.9474   4838110.8080   1   7   0.0010   0.0005   0.0009  -0.0002   0.0000   0.0005   0.00   29.3
2018/02/21 10:17:00.000   4136503.5474     87779.9475   4838110.8080   1   7   0.0010   0.0005   0.0009  -0.0002   0.0001   0.0005   0.00   30.1
2018/02/21 10:17:30.000   4136503.5475     87779.9475   4838110.8081   1   7   0.0010   0.0005   0.0009  -0.0002   0.0001   0.0005   0.00   30.9
2018/02/21 10:18:00.000   4136503.5468     87779.9480   4838110.8078   1   6   0.0011   0.0006   0.0009  -0.0004  -0.0003   0.0006   0.00   34.0
2018/02/21 10:18:30.000   4136503.5468     87779.9480   4838110.8079   1   6   0.0011   0.0006   0.0009  -0.0004  -0.0003   0.0006   0.00   35.4
2018/02/21 10:19:00.000   4136503.5468     87779.9480   4838110.8079   1   6   0.0011   0.0006   0.0009  -0.0004  -0.0003   0.0006   0.00   36.7
2018/02/21 10:19:30.000   4136503.5468     87779.9479   4838110.8080   1   6   0.0011   0.0006   0.0009  -0.0004  -0.0003   0.0006   0.00   38.0
2018/02/21 10:20:00.000   4136503.5469     87779.9479   4838110.8080   1   6   0.0011   0.0006   0.0009  -0.0004  -0.0002   0.0006   0.00   39.1
2018/02/21 10:20:30.000   4136503.5471     87779.9478   4838110.8080   1   6   0.0011   0.0006   0.0009  -0.0004  -0.0002   0.0006   0.00   39.9
2018/02/21 10:21:00.000   4136503.5471     87779.9478   4838110.8079   1   6   0.0011   0.0006   0.0009  -0.0004  -0.0002   0.0006   0.00   40.6
2018/02/21 10:21:30.000   4136503.5472     87779.9478   4838110.8080   1   6   0.0011   0.0006   0.0009  -0.0004  -0.0002   0.0006   0.00   41.6
2018/02/21 10:22:00.000   4136503.5474     87779.9477   4838110.8080   1   6   0.0011   0.0006   0.0009  -0.0004  -0.0002   0.0006   0.00   42.5
2018/02/21 10:22:30.000   4136503.5476     87779.9476   4838110.8080   1   6   0.0011   0.0006   0.0009  -0.0004  -0.0002   0.0006   0.00   42.8
2018/02/21 10:23:00.000   4136503.5477     87779.9475   4838110.8080   1   6   0.0011   0.0006   0.0009  -0.0004  -0.0002   0.0006   0.00   44.1
2018/02/21 10:23:30.000   4136503.5478     87779.9475   4838110.8081   1   6   0.0011   0.0006   0.0009  -0.0004  -0.0002   0.0006   0.00   44.5
2018/02/21 10:24:00.000   4136503.5479     87779.9474   4838110.8082   1   6   0.0011   0.0006   0.0009  -0.0004  -0.0002   0.0006   0.00   45.4
2018/02/21 10:24:30.000   4136503.5481     87779.9473   4838110.8083   1   6   0.0011   0.0006   0.0009  -0.0004  -0.0002   0.0006   0.00   46.1
2018/02/21 10:25:00.000   4136503.5482     87779.9472   4838110.8084   1   6   0.0010   0.0006   0.0009  -0.0004  -0.0002   0.0006   0.00   46.8
2018/02/21 10:25:30.000   4136503.5484     87779.9472   4838110.8085   1   6   0.0010   0.0006   0.0009  -0.0004  -0.0002   0.0006   0.00   47.6
2018/02/21 10:26:00.000   4136503.5486     87779.9471   4838110.8086   1   6   0.0010   0.0006   0.0009  -0.0004  -0.0002   0.0006   0.00   48.4
2018/02/21 10:26:30.000   4136503.5487     87779.9470   4838110.8087   1   6   0.0010   0.0006   0.0009  -0.0004  -0.0002   0.0006   0.00   49.7
2018/02/21 10:27:00.000   4136503.5488     87779.9469   4838110.8088   1   6   0.0010   0.0006   0.0009  -0.0004  -0.0002   0.0006   0.00   50.0
2018/02/21 10:27:30.000   4136503.5489     87779.9469   4838110.8089   1   6   0.0010   0.0006   0.0009  -0.0004  -0.0002   0.0006   0.00   50.8
2018/02/21 10:28:00.000   4136503.5490     87779.9468   4838110.8090   1   6   0.0010   0.0006   0.0009  -0.0004  -0.0002   0.0006   0.00   51.7
2018/02/21 10:28:30.000   4136503.5490     87779.9468   4838110.8090   1   6   0.0010   0.0006   0.0009  -0.0004  -0.0002   0.0006   0.00   52.8
2018/02/21 10:29:00.000   4136503.5490     87779.9467   4838110.8090   1   6   0.0010   0.0006   0.0009  -0.0004  -0.0002   0.0006   0.00   54.2
2018/02/21 10:29:30.000   4136503.5491     87779.9466   4838110.8091   1   6   0.0010   0.0006   0.0009  -0.0004  -0.0002   0.0006   0.00   55.6
2018/02/21 10:30:00.000   4136503.5492     87779.9465   4838110.8092   1   6   0.0010   0.0006   0.0009  -0.0004  -0.0002   0.0006   0.00   57.2
2018/02/21 10:30:30.000   4136503.5494     87779.9465   4838110.8092   1   6   0.0010   0.0006   0.0009  -0.0004  -0.0002   0.0006   0.00   58.8
2018/02/21 10:31:00.000   4136503.5495     87779.9465   4838110.8092   1   6   0.0010   0.0006   0.0009  -0.0004  -0.0002   0.0006   0.00   61.1
2018/02/21 10:31:30.000   4136503.5495     87779.9465   4838110.8093   1   6   0.0010   0.0006   0.0009  -0.0004  -0.0002   0.0006   0.00   62.8
2018/02/21 10:32:00.000   4136503.5450     87779.9738   4838110.8081   2   7   0.0014   0.0034   0.0011   0.0003   0.0003   0.0008   0.00    1.8
2018/02/21 10:32:30.000   4136503.5451     87779.9738   4838110.8081   2   7   0.0014   0.0034   0.0011   0.0003   0.0003   0.0008   0.00    2.5
2018/02/21 10:33:00.000   4136503.5498     87779.9463   4838110.8093   1   7   0.0010   0.0005   0.0009  -0.0004  -0.0001   0.0006   0.00    3.2
2018/02/21 10:33:30.000   4136503.5498     87779.9462   4838110.8094   1   7   0.0010   0.0005   0.0009  -0.0003  -0.0001   0.0006   0.00    4.0
2018/02/21 10:34:00.000   4136503.5499     87779.9463   4838110.8094   1   7   0.0010   0.0005   0.0009  -0.0003  -0.0001   0.0006   0.00    4.9
2018/02/21 10:34:30.000   4136503.5499     87779.9463   4838110.8094   1   7   0.0010   0.0005   0.0009  -0.0003  -0.0001   0.0006   0.00    5.9
2018/02/21 10:35:00.000   4136503.5499     87779.9463   4838110.8094   1   7   0.0010   0.0005   0.0009  -0.0003  -0.0001   0.0006   0.00    6.9
2018/02/21 10:35:30.000   4136503.5499     87779.9463   4838110.8094   1   7   0.0010   0.0005   0.0009  -0.0003  -0.0001   0.0006   0.00    7.7
2018/02/21 10:36:00.000   4136503.5499     87779.9463   4838110.8094   1   7   0.0009   0.0005   0.0009  -0.0003  -0.0001   0.0006   0.00    8.6
2018/02/21 10:36:30.000   4136503.5499     87779.9463   4838110.8093   1   7   0.0009   0.0005   0.0009  -0.0003  -0.0001   0.0006   0.00    9.6
2018/02/21 10:37:00.000   4136503.5498     87779.9464   4838110.8093   1   7   0.0009   0.0005   0.0009  -0.0003  -0.0001   0.0006   0.00   10.6
2018/02/21 10:37:30.000   4136503.5497     87779.9463   4838110.8092   1   7   0.0009   0.0005   0.0009  -0.0003  -0.0001   0.0006   0.00   11.5
2018/02/21 10:38:00.000   4136503.5497     87779.9463   4838110.8092   1   7   0.0009   0.0005   0.0009  -0.0003  -0.0001   0.0006   0.00   12.5
2018/02/21 10:38:30.000   4136503.5495     87779.9464   4838110.8091   1   7   0.0009   0.0005   0.0008  -0.0003  -0.0001   0.0006   0.00   13.2
2018/02/21 10:39:00.000   4136503.5493     87779.9464   4838110.8090   1   7   0.0009   0.0005   0.0008  -0.0003  -0.0001   0.0006   0.00   13.9
2018/02/21 10:39:30.000   4136503.5493     87779.9464   4838110.8090   1   7   0.0009   0.0005   0.0008  -0.0003  -0.0001   0.0006   0.00   14.9
2018/02/21 10:40:00.000   4136503.5491     87779.9464   4838110.8089   1   7   0.0009   0.0005   0.0008  -0.0003  -0.0001   0.0006   0.00   16.1
2018/02/21 10:40:30.000   4136503.5490     87779.9463   4838110.8088   1   7   0.0009   0.0005   0.0008  -0.0003  -0.0001   0.0006   0.00   17.3
2018/02/21 10:41:00.000   4136503.5490     87779.9463   4838110.8088   1   7   0.0009   0.0005   0.0008  -0.0003  -0.0001   0.0006   0.00   18.2
2018/02/21 10:41:30.000   4136503.5490     87779.9463   4838110.8087   1   7   0.0009   0.0005   0.0008  -0.0003  -0.0001   0.0006   0.00   19.2
2018/02/21 10:42:00.000   4136503.5489     87779.9462   4838110.8087   1   7   0.0009   0.0005   0.0008  -0.0003  -0.0001   0.0006   0.00   20.1
2018/02/21 10:42:30.000   4136503.5489     87779.9462   4838110.8087   1   7   0.0009   0.0005   0.0008  -0.0003  -0.0001   0.0006   0.00   20.9
2018/02/21 10:43:00.000   4136503.5489     87779.9463   4838110.8088   1   7   0.0009   0.0005   0.0008  -0.0003  -0.0001   0.0006   0.00   21.9
2018/02/21 10:43:30.000   4136503.5490     87779.9463   4838110.8088   1   7   0.0009   0.0005   0.0008  -0.0003  -0.0001   0.0006   0.00   22.6
2018/02/21 10:44:00.000   4136503.5490     87779.9463   4838110.8088   1   7   0.0009   0.0005   0.0008  -0.0003  -0.0001   0.0006   0.00   23.6
2018/02/21 10:44:30.000   4136503.5490     87779.9463   4838110.8088   1   7   0.0009   0.0005   0.0008  -0.0003  -0.0001   0.0006   0.00   24.5
2018/02/21 10:45:00.000   4136503.5489     87779.9464   4838110.8088   1   7   0.0009   0.0005   0.0008  -0.0003  -0.0001   0.0006   0.00   25.1
2018/02/21 10:45:30.000   4136503.5489     87779.9463   4838110.8088   1   7   0.0009   0.0005   0.0008  -0.0003  -0.0001   0.0006   0.00   25.7
2018/02/21 10:46:00.000   4136503.5489     87779.9464   4838110.8088   1   7   0.0009   0.0005   0.0008  -0.0003  -0.0001   0.0006   0.00   26.3
2018/02/21 10:46:30.000   4136503.5488     87779.9464   4838110.8088   1   7   0.0009   0.0005   0.0008  -0.0003  -0.0001   0.0006   0.00   26.9
2018/02/21 10:47:00.000   4136503.5487     87779.9465   4838110.8088   1   7   0.0009   0.0005   0.0008  -0.0003  -0.0001   0.0006   0.00   27.8
2018/02/21 10:47:30.000   4136503.5486     87779.9465   4838110.8088   1   7   0.0009   0.0005   0.0008  -0.0003  -0.0001   0.0006   0.00   28.6
2018/02/21 10:48:00.000   4136503.5486     87779.9465   4838110.8089   1   7   0.0009   0.0005   0.0008  -0.0003  -0.0001   0.0006   0.00   29.6
2018/02/21 10:48:30.000   4136503.5486     87779.9465   4838110.8089   1   7   0.0009   0.0005   0.0008  -0.0003  -0.0001   0.0006   0.00   30.7
2018/02/21 10:49:00.000   4136503.5486     87779.9465   4838110.8090   1   7   0.0009   0.0005   0.0008  -0.0003  -0.0001   0.0006   0.00   31.4
2018/02/21 10:49:30.000   4136503.5486     87779.9465   4838110.8091   1   7   0.0009   0.0005   0.0008  -0.0003  -0.0000   0.0006   0.00   32.6
2018/02/21 10:50:00.000   4136503.5486     87779.9464   4838110.8092   1   7   0.0009   0.0005   0.0008  -0.0003  -0.0000   0.0006   0.00   33.7
2018/02/21 10:50:30.000   4136503.5485     87779.9464   4838110.8093   1   7   0.0009   0.0005   0.0008  -0.0003  -0.0000   0.0006   0.00   34.9
2018/02/21 10:51:00.000   4136503.5484     87779.9463   4838110.8093   1   7   0.0009   0.0005   0.0008  -0.0003  -0.0000   0.0006   0.00   35.9
2018/02/21 10:51:30.000   4136503.5484     87779.9462   4838110.8094   1   7   0.0008   0.0005   0.0008  -0.0003  -0.0000   0.0006   0.00   36.9
2018/02/21 10:52:00.000   4136503.5484     87779.9460   4838110.8095   1   7   0.0008   0.0005   0.0008  -0.0003  -0.0000   0.0006   0.00   38.3
2018/02/21 10:52:30.000   4136503.5485     87779.9459   4838110.8095   1   7   0.0008   0.0005   0.0008  -0.0003  -0.0000   0.0006   0.00   39.6
2018/02/21 10:53:00.000   4136503.5485     87779.9458   4838110.8095   1   7   0.0008   0.0005   0.0008  -0.0003   0.0000   0.0006   0.00   40.5
2018/02/21 10:53:30.000   4136503.5485     87779.9457   4838110.8095   1   7   0.0008   0.0005   0.0008  -0.0003   0.0000   0.0006   0.00   41.6
2018/02/21 10:54:00.000   4136503.5485     87779.9456   4838110.8095   1   7   0.0008   0.0005   0.0008  -0.0003   0.0000   0.0006   0.00   43.2
2018/02/21 10:54:30.000   4136503.5485     87779.9456   4838110.8095   1   7   0.0008   0.0005   0.0008  -0.0003   0.0000   0.0006   0.00   45.7
2018/02/21 10:55:00.000   4136503.5483     87779.9456   4838110.8095   1   7   0.0008   0.0005   0.0008  -0.0003   0.0000   0.0006   0.00   48.0
2018/02/21 10:55:30.000   4136503.5482     87779.9456   4838110.8094   1   7   0.0008   0.0005   0.0008  -0.0003   0.0000   0.0006   0.00   49.7
2018/02/21 10:56:00.000   4136503.5481     87779.9456   4838110.8094   1   7   0.0008   0.0005   0.0009  -0.0003   0.0000   0.0006   0.00   51.5
2018/02/21 10:56:30.000   4136503.5480     87779.9457   4838110.8094   1   7   0.0008   0.0005   0.0009  -0.0003   0.0000   0.0006   0.00   53.0
2018/02/21 10:57:00.000   4136503.5479     87779.9457   4838110.8094   1   7   0.0008   0.0005   0.0009  -0.0003   0.0001   0.0006   0.00   54.3
2018/02/21 10:57:30.000   4136503.5479     87779.9457   4838110.8094   1   7   0.0008   0.0005   0.0009  -0.0003   0.0001   0.0006   0.00   55.4
2018/02/21 10:58:00.000   4136503.5478     87779.9457   4838110.8094   1   7   0.0008   0.0005   0.0009  -0.0003   0.0001   0.0006   0.00   56.7
2018/02/21 10:58:30.000   4136503.5478     87779.9458   4838110.8093   1   7   0.0008   0.0005   0.0009  -0.0003   0.0001   0.0006   0.00   58.3
2018/02/21 10:59:00.000   4136503.5480     87779.9458   4838110.8093   1   7   0.0008   0.0005   0.0009  -0.0003   0.0001   0.0006   0.00   59.0
2018/02/21 10:59:30.000   4136503.5482     87779.9458   4838110.8093   1   7   0.0008   0.0005   0.0009  -0.0003   0.0001   0.0006   0.00   59.1
2018/02/21 11:00:00.000   4136503.5482     87779.9458   4838110.8092   1   7   0.0008   0.0005   0.0009  -0.0003   0.0001   0.0006   0.00   60.0
2018/02/21 11:00:30.000   4136503.5482     87779.9459   4838110.8092   1   7   0.0008   0.0005   0.0009  -0.0003   0.0001   0.0006   0.00   61.0
2018/02/21 11:01:00.000   4136503.5483     87779.9459   4838110.8092   1   7   0.0008   0.0005   0.0009  -0.0003   0.0001   0.0006   0.00   62.6
2018/02/21 11:01:30.000   4136503.5483     87779.9459   4838110.8091   1   7   0.0008   0.0005   0.0009  -0.0003   0.0001   0.0006   0.00   63.4
2018/02/21 11:02:00.000   4136503.5483     87779.9459   4838110.8091   1   7   0.0008   0.0005   0.0009  -0.0003   0.0001   0.0006   0.00   64.1
2018/02/21 11:02:30.000   4136503.5484     87779.9460   4838110.8091   1   7   0.0008   0.0005   0.0009  -0.0003   0.0001   0.0006   0.00   63.6
2018/02/21 11:03:00.000   4136503.5485     87779.9460   4838110.8092   1   7   0.0008   0.0005   0.0009  -0.0003   0.0001   0.0006   0.00   63.3
2018/02/21 11:03:30.000   4136503.5486     87779.9460   4838110.8091   1   7   0.0008   0.0005   0.0009  -0.0003   0.0001   0.0006   0.00   63.5
2018/02/21 11:04:00.000   4136503.5486     87779.9461   4838110.8092   1   7   0.0008   0.0005   0.0009  -0.0003   0.0001   0.0006   0.00   64.8
2018/02/21 11:04:30.000   4136503.5487     87779.9461   4838110.8091   1   7   0.0008   0.0005   0.0009  -0.0003   0.0001   0.0006   0.00   66.9
2018/02/21 11:05:00.000   4136503.5486     87779.9462   4838110.8091   1   7   0.0008   0.0005   0.0009  -0.0002   0.0001   0.0006   0.00   68.9
2018/02/21 11:05:30.000   4136503.5487     87779.9462   4838110.8090   1   7   0.0008   0.0005   0.0009  -0.0002   0.0001   0.0006   0.00   70.5
2018/02/21 11:06:00.000   4136503.5488     87779.9462   4838110.8090   1   7   0.0008   0.0005   0.0009  -0.0002   0.0001   0.0006   0.00   72.4
2018/02/21 11:06:30.000   4136503.5489     87779.9462   4838110.8090   1   7   0.0008   0.0005   0.0009  -0.0002   0.0001   0.0006   0.00   73.2
2018/02/21 11:07:00.000   4136503.5490     87779.9462   4838110.8090   1   7   0.0008   0.0005   0.0009  -0.0002   0.0001   0.0006   0.00   73.9
2018/02/21 11:07:30.000   4136503.5490     87779.9462   4838110.8090   1   7   0.0008   0.0005   0.0009  -0.0002   0.0001   0.0006   0.00   75.4
2018/02/21 11:08:00.000   4136503.5490     87779.9462   4838110.8090   1   7   0.0008   0.0005   0.0009  -0.0002   0.0001   0.0006   0.00   76.4
2018/02/21 11:08:30.000   4136503.5489     87779.9462   4838110.8090   1   7   0.0008   0.0005   0.0009  -0.0002   0.0001   0.0006   0.00   78.8
2018/02/21 11:09:00.000   4136503.5488     87779.9462   4838110.8090   1   7   0.0008   0.0005   0.0009  -0.0002   0.0001   0.0006   0.00   81.0
2018/02/21 11:09:30.000   4136503.5488     87779.9462   4838110.8090   1   7   0.0008   0.0005   0.0009  -0.0002   0.0001   0.0006   0.00   82.4
2018/02/21 11:10:00.000   4136503.5488     87779.9462   4838110.8090   1   7   0.0008   0.0005   0.0009  -0.0002   0.0001   0.0006   0.00   84.2
2018/02/21 11:10:30.000   4136503.5487     87779.9461   4838110.8091   1   7   0.0008   0.0005   0.0009  -0.0002   0.0001   0.0006   0.00   85.3
2018/02/21 11:11:00.000   4136503.5487     87779.9460   4838110.8091   1   7   0.0008   0.0005   0.0009  -0.0002   0.0001   0.0006   0.00   85.7
2018/02/21 11:11:30.000   4136503.5486     87779.9460   4838110.8092   1   7   0.0008   0.0005   0.0009  -0.0002   0.0001   0.0006   0.00   87.4
2018/02/21 11:12:00.000   4136503.5485     87779.9459   4838110.8092   1   7   0.0008   0.0005   0.0009  -0.0002   0.0001   0.0006   0.00   88.7
2018/02/21 11:12:30.000   4136503.5486     87779.9459   4838110.8092   1   7   0.0008   0.0005   0.0009  -0.0002   0.0001   0.0006   0.00   89.0
2018/02/21 11:13:00.000   4136503.5485     87779.9458   4838110.8093   1   7   0.0008   0.0005   0.0009  -0.0002   0.0001   0.0006   0.00   89.2
2018/02/21 11:13:30.000   4136503.5484     87779.9458   4838110.8093   1   7   0.0008   0.0005   0.0009  -0.0002   0.0001   0.0006   0.00   90.6
2018/02/21 11:14:00.000   4136503.5484     87779.9457   4838110.8093   1   7   0.0008   0.0005   0.0009  -0.0002   0.0001   0.0006   0.00   93.4
2018/02/21 11:14:30.000   4136503.5484     87779.9457   4838110.8093   1   7   0.0008   0.0005   0.0009  -0.0002   0.0001   0.0006   0.00   94.2
2018/02/21 11:15:00.000   4136503.5484     87779.9456   4838110.8093   1   7   0.0008   0.0005   0.0009  -0.0002   0.0001   0.0006   0.00   95.8
2018/02/21 11:15:30.000   4136503.5483     87779.9455   4838110.8093   1   7   0.0008   0.0004   0.0009  -0.0002   0.0001   0.0006   0.00   97.5
2018/02/21 11:16:00.000   4136503.5483     87779.9455   4838110.8093   1   7   0.0008   0.0004   0.0009  -0.0002   0.0001   0.0006   0.00  100.3
2018/02/21 11:16:30.000   4136503.5484     87779.9454   4838110.8093   1   7   0.0008   0.0004   0.0009  -0.0002   0.0001   0.0006   0.00  103.1
2018/02/21 11:17:00.000   4136503.5485     87779.9453   4838110.8093   1   7   0.0008   0.0004   0.0009  -0.0002   0.0001   0.0006   0.00  105.6
2018/02/21 11:17:30.000   4136503.5486     87779.9452   4838110.8092   1   7   0.0008   0.0004   0.0009  -0.0002   0.0001   0.0006   0.00  107.3
2018/02/21 11:18:00.000   4136503.5486     87779.9451   4838110.8092   1   7   0.0008   0.0004   0.0009  -0.0002   0.0001   0.0006   0.00  110.8
2018/02/21 11:18:30.000   4136503.5486     87779.9450   4838110.8092   1   7   0.0008   0.0004   0.0009  -0.0002   0.0001   0.0006   0.00  114.2
2018/02/21 11:19:00.000   4136503.5486     87779.9450   4838110.8092   1   7   0.0008   0.0004   0.0009  -0.0002   0.0001   0.0006   0.00  116.7
2018/02/21 11:19:30.000   4136503.5486     87779.9450   4838110.8091   1   7   0.0008   0.0004   0.0009  -0.0002   0.0001   0.0006   0.00  119.0
2018/02/21 11:20:00.000   4136503.5486     87779.9449   4838110.8090   1   7   0.0008   0.0004   0.0009  -0.0002   0.0001   0.0006   0.00  121.9
2018/02/21 11:20:30.000   4136503.5486     87779.9448   4838110.8089   1   7   0.0008   0.0004   0.0009  -0.0002   0.0001   0.0006   0.00  124.6
2018/02/21 11:21:00.000   4136503.5485     87779.9448   4838110.8089   1   7   0.0008   0.0004   0.0009  -0.0002   0.0001   0.0006   0.00  129.5
2018/02/21 11:21:30.000   4136503.5484     87779.9448   4838110.8088   1   7   0.0008   0.0004   0.0009  -0.0002   0.0001   0.0006   0.00  132.2
2018/02/21 11:22:00.000   4136503.5484     87779.9447   4838110.8088   1   7   0.0008   0.0004   0.0009  -0.0002   0.0001   0.0006   0.00  134.6
2018/02/21 11:22:30.000   4136503.5484     87779.9446   4838110.8088   1   7   0.0008   0.0004   0.0009  -0.0002   0.0001   0.0006   0.00  135.8
