% program   : RTKPOST-QT ver.2.4.3 b27
% inp file  : /home/prof/Projet_geodesieSGRUEL/21_03_2018/sxj1052z.18o
% inp file  : /home/prof/Projet_geodesieSGRUEL/52/meln052z.18o
% inp file  : /home/prof/Projet_geodesieSGRUEL/52/meln052z.18n
% inp file  : /home/prof/Projet_geodesieSGRUEL/21_03_2018/brdc052z.18n
% obs start : 2018/02/21 08:00:00.0 GPST (week1989 288000.0s)
% obs end   : 2018/02/21 16:59:30.0 GPST (week1989 320370.0s)
% pos mode  : static
% freqs     : L1+L2
% solution  : forward
% elev mask : 15.0 deg
% dynamics  : off
% tidecorr  : off
% ionos opt : broadcast
% tropo opt : saastamoinen
% ephemeris : broadcast
% amb res   : continuous
% val thres : 3.0
% antenna1  :                       ( 0.0000  0.0000  0.0000)
% antenna2  : LEIAR25         LEIT  ( 0.0000  0.0000  0.0000)
% ref pos   :  4226433.0030    197279.0530   4756902.4360
%
% (x/y/z-ecef=WGS84,Q=1:fix,2:float,3:sbas,4:dgps,5:single,6:ppp,ns=# of satellites)
%  GPST                      x-ecef(m)      y-ecef(m)      z-ecef(m)   Q  ns   sdx(m)   sdy(m)   sdz(m)  sdxy(m)  sdyz(m)  sdzx(m) age(s)  ratio
2018/02/21 08:00:00.000   4208047.3913    228666.8048   4771795.0572   2   7   0.9281   0.4344   0.9752  -0.1660  -0.2155   0.8223   0.00    1.0
2018/02/21 08:00:30.000   4208047.4359    228666.7147   4771794.8514   2   7   0.5778   0.3044   0.5709  -0.0263  -0.1031   0.4749   0.00    1.0
2018/02/21 08:01:00.000   4208047.3901    228666.7544   4771794.9380   2   7   0.4116   0.2451   0.3768   0.0828  -0.0345   0.3079   0.00    1.0
2018/02/21 08:01:30.000   4208047.4281    228666.7845   4771795.1420   2   7   0.3157   0.2091   0.2681   0.0954   0.0394   0.2154   0.00    1.2
2018/02/21 08:02:00.000   4208047.3407    228666.7799   4771795.1731   2   7   0.2541   0.1842   0.2016   0.0977   0.0476   0.1599   0.00    1.0
2018/02/21 08:02:30.000   4208047.3100    228666.8131   4771795.1861   2   7   0.2115   0.1654   0.1581   0.0962   0.0482   0.1246   0.00    1.2
2018/02/21 08:03:00.000   4208047.2710    228666.7807   4771795.1666   2   7   0.1805   0.1506   0.1280   0.0932   0.0466   0.1007   0.00    1.3
2018/02/21 08:03:30.000   4208047.2042    228666.7527   4771795.1680   2   7   0.1570   0.1385   0.1062   0.0896   0.0444   0.0839   0.00    1.3
2018/02/21 08:04:00.000   4208047.1560    228666.7727   4771795.1671   2   7   0.1386   0.1282   0.0900   0.0857   0.0420   0.0716   0.00    1.3
2018/02/21 08:04:30.000   4208047.1212    228666.7940   4771795.1959   2   7   0.1239   0.1194   0.0775   0.0818   0.0396   0.0623   0.00    1.3
2018/02/21 08:05:00.000   4208047.1179    228666.8313   4771795.2085   2   7   0.1119   0.1116   0.0676   0.0779   0.0374   0.0550   0.00    1.3
2018/02/21 08:05:30.000   4208047.1350    228666.8620   4771795.2011   2   7   0.1019   0.1047   0.0597   0.0742   0.0353   0.0492   0.00    1.3
2018/02/21 08:06:00.000   4208047.1233    228666.8685   4771795.1706   2   7   0.0934   0.0985   0.0532   0.0706   0.0333   0.0445   0.00    1.3
2018/02/21 08:06:30.000   4208047.1350    228666.8705   4771795.1533   2   7   0.0861   0.0928   0.0478   0.0672   0.0315   0.0405   0.00    1.2
2018/02/21 08:07:00.000   4208047.1481    228666.8721   4771795.1327   2   7   0.0797   0.0877   0.0433   0.0640   0.0298   0.0372   0.00    1.2
2018/02/21 08:07:30.000   4208047.1691    228666.8838   4771795.1228   2   7   0.0742   0.0830   0.0394   0.0609   0.0283   0.0343   0.00    1.2
2018/02/21 08:08:00.000   4208047.2015    228666.8979   4771795.1263   2   7   0.0693   0.0786   0.0361   0.0580   0.0268   0.0318   0.00    1.2
2018/02/21 08:08:30.000   4208047.2474    228666.9331   4771795.1512   2   7   0.0649   0.0746   0.0332   0.0553   0.0255   0.0296   0.00    1.3
2018/02/21 08:09:00.000   4208047.2977    228666.9841   4771795.2004   2   7   0.0610   0.0709   0.0307   0.0527   0.0242   0.0277   0.00    1.4
2018/02/21 08:09:30.000   4208047.3422    228667.0174   4771795.2408   2   7   0.0574   0.0674   0.0285   0.0503   0.0230   0.0260   0.00    1.4
2018/02/21 08:10:00.000   4208047.3735    228667.0457   4771795.2843   2   7   0.0542   0.0642   0.0265   0.0480   0.0219   0.0244   0.00    1.5
2018/02/21 08:10:30.000   4208047.3883    228667.0643   4771795.3246   2   7   0.0512   0.0612   0.0248   0.0458   0.0209   0.0230   0.00    1.6
2018/02/21 08:11:00.000   4208047.4092    228667.0913   4771795.3604   2   7   0.0485   0.0583   0.0232   0.0437   0.0199   0.0217   0.00    1.7
2018/02/21 08:11:30.000   4208047.4264    228667.1051   4771795.3866   2   7   0.0461   0.0557   0.0218   0.0418   0.0190   0.0206   0.00    1.7
2018/02/21 08:12:00.000   4208047.4219    228667.0795   4771795.4036   2   7   0.0438   0.0532   0.0206   0.0400   0.0182   0.0195   0.00    1.7
2018/02/21 08:12:30.000   4208047.4069    228667.0275   4771795.4008   2   7   0.0417   0.0509   0.0194   0.0383   0.0174   0.0185   0.00    1.7
2018/02/21 08:13:00.000   4208047.3843    228666.9617   4771795.3881   2   7   0.0397   0.0487   0.0184   0.0367   0.0166   0.0176   0.00    1.6
2018/02/21 08:13:30.000   4208047.3626    228666.9029   4771795.3770   2   7   0.0379   0.0467   0.0174   0.0351   0.0159   0.0168   0.00    1.5
2018/02/21 08:14:00.000   4208047.3533    228666.8780   4771795.3784   2   7   0.0362   0.0448   0.0165   0.0337   0.0152   0.0160   0.00    1.5
2018/02/21 08:14:30.000   4208047.3573    228666.8810   4771795.3933   2   7   0.0346   0.0429   0.0157   0.0323   0.0146   0.0153   0.00    1.5
2018/02/21 08:15:00.000   4208047.3690    228666.8968   4771795.4071   2   7   0.0331   0.0412   0.0150   0.0310   0.0140   0.0146   0.00    1.5
2018/02/21 08:15:30.000   4208047.3774    228666.9054   4771795.4100   2   7   0.0318   0.0396   0.0143   0.0298   0.0134   0.0140   0.00    1.6
2018/02/21 08:16:00.000   4208047.3836    228666.9150   4771795.4067   2   7   0.0305   0.0381   0.0137   0.0286   0.0129   0.0134   0.00    1.6
2018/02/21 08:16:30.000   4208047.3897    228666.9309   4771795.4066   2   7   0.0292   0.0367   0.0131   0.0275   0.0124   0.0129   0.00    1.6
2018/02/21 08:17:00.000   4208047.4001    228666.9563   4771795.4106   2   7   0.0281   0.0353   0.0125   0.0265   0.0119   0.0123   0.00    1.6
2018/02/21 08:17:30.000   4208047.4101    228666.9782   4771795.4166   2   7   0.0270   0.0340   0.0120   0.0255   0.0115   0.0119   0.00    1.6
2018/02/21 08:18:00.000   4208047.4201    228666.9963   4771795.4223   2   7   0.0260   0.0328   0.0115   0.0246   0.0111   0.0114   0.00    1.6
2018/02/21 08:18:30.000   4208047.4290    228667.0090   4771795.4249   2   7   0.0251   0.0316   0.0111   0.0237   0.0107   0.0110   0.00    1.6
2018/02/21 08:19:00.000   4208047.4346    228667.0171   4771795.4228   2   7   0.0242   0.0305   0.0107   0.0228   0.0103   0.0106   0.00    1.6
2018/02/21 08:19:30.000   4208047.4463    228667.0252   4771795.4225   2   7   0.0233   0.0295   0.0103   0.0220   0.0099   0.0102   0.00    1.6
2018/02/21 08:20:00.000   4208047.4563    228667.0339   4771795.4177   2   7   0.0225   0.0285   0.0099   0.0213   0.0096   0.0098   0.00    1.7
2018/02/21 08:20:30.000   4208047.4589    228667.0297   4771795.4065   2   7   0.0217   0.0276   0.0096   0.0205   0.0092   0.0095   0.00    1.7
2018/02/21 08:21:00.000   4208047.4625    228667.0235   4771795.3938   2   7   0.0210   0.0267   0.0092   0.0198   0.0089   0.0092   0.00    1.7
2018/02/21 08:21:30.000   4208047.4697    228667.0235   4771795.3838   2   7   0.0203   0.0258   0.0089   0.0192   0.0086   0.0088   0.00    1.8
2018/02/21 08:22:00.000   4208047.4774    228667.0209   4771795.3745   2   7   0.0196   0.0250   0.0086   0.0186   0.0084   0.0086   0.00    1.8
2018/02/21 08:22:30.000   4208047.4802    228667.0121   4771795.3625   2   7   0.0190   0.0242   0.0084   0.0180   0.0081   0.0083   0.00    1.9
2018/02/21 08:23:00.000   4208047.4885    228667.0107   4771795.3519   2   7   0.0184   0.0235   0.0081   0.0174   0.0078   0.0080   0.00    2.0
2018/02/21 08:23:30.000   4208047.4924    228667.0096   4771795.3402   2   7   0.0179   0.0228   0.0078   0.0168   0.0076   0.0078   0.00    2.0
2018/02/21 08:24:00.000   4208047.4945    228667.0041   4771795.3287   2   7   0.0173   0.0221   0.0076   0.0163   0.0073   0.0075   0.00    2.1
2018/02/21 08:24:30.000   4208047.4971    228667.0003   4771795.3187   2   7   0.0168   0.0215   0.0074   0.0158   0.0071   0.0073   0.00    2.2
2018/02/21 08:25:00.000   4208047.5012    228667.0001   4771795.3104   2   7   0.0163   0.0209   0.0072   0.0153   0.0069   0.0071   0.00    2.3
2018/02/21 08:25:30.000   4208047.5069    228666.9998   4771795.3052   2   7   0.0159   0.0203   0.0070   0.0149   0.0067   0.0069   0.00    2.5
2018/02/21 08:26:00.000   4208047.5138    228667.0032   4771795.3013   2   7   0.0154   0.0197   0.0068   0.0144   0.0065   0.0067   0.00    2.6
2018/02/21 08:26:30.000   4208047.5232    228667.0083   4771795.2974   2   7   0.0150   0.0192   0.0066   0.0140   0.0063   0.0065   0.00    2.7
2018/02/21 08:27:00.000   4208047.5314    228667.0154   4771795.2948   2   7   0.0146   0.0187   0.0064   0.0136   0.0061   0.0063   0.00    2.9
2018/02/21 08:27:30.000   4208047.4604    228666.9527   4771795.2382   1   7   0.0014   0.0006   0.0016  -0.0003  -0.0004   0.0013   0.00    3.0
2018/02/21 08:28:00.000   4208047.4603    228666.9524   4771795.2383   1   7   0.0014   0.0006   0.0016  -0.0003  -0.0004   0.0013   0.00    3.2
2018/02/21 08:28:30.000   4208047.4602    228666.9521   4771795.2387   1   7   0.0014   0.0006   0.0016  -0.0003  -0.0004   0.0013   0.00    3.3
2018/02/21 08:29:00.000   4208047.4600    228666.9519   4771795.2391   1   7   0.0014   0.0006   0.0016  -0.0003  -0.0004   0.0013   0.00    3.5
2018/02/21 08:29:30.000   4208047.4597    228666.9517   4771795.2393   1   7   0.0014   0.0006   0.0016  -0.0003  -0.0004   0.0013   0.00    3.7
2018/02/21 08:30:00.000   4208047.4596    228666.9515   4771795.2397   1   7   0.0014   0.0006   0.0016  -0.0003  -0.0004   0.0013   0.00    3.9
2018/02/21 08:30:30.000   4208047.4593    228666.9513   4771795.2401   1   7   0.0014   0.0006   0.0016  -0.0003  -0.0004   0.0013   0.00    4.1
2018/02/21 08:31:00.000   4208047.4591    228666.9512   4771795.2407   1   7   0.0013   0.0006   0.0016  -0.0003  -0.0004   0.0013   0.00    4.2
2018/02/21 08:31:30.000   4208047.4589    228666.9510   4771795.2412   1   7   0.0013   0.0006   0.0016  -0.0003  -0.0004   0.0013   0.00    4.5
2018/02/21 08:32:00.000   4208047.4586    228666.9509   4771795.2416   1   7   0.0013   0.0006   0.0016  -0.0003  -0.0004   0.0013   0.00    4.6
2018/02/21 08:32:30.000   4208047.4583    228666.9506   4771795.2422   1   7   0.0013   0.0006   0.0016  -0.0003  -0.0004   0.0013   0.00    4.8
2018/02/21 08:33:00.000   4208047.4581    228666.9504   4771795.2428   1   7   0.0013   0.0006   0.0016  -0.0003  -0.0004   0.0013   0.00    5.0
2018/02/21 08:33:30.000   4208047.4579    228666.9501   4771795.2436   1   7   0.0013   0.0006   0.0016  -0.0003  -0.0004   0.0013   0.00    5.1
2018/02/21 08:34:00.000   4208047.4577    228666.9499   4771795.2443   1   7   0.0013   0.0006   0.0016  -0.0003  -0.0004   0.0013   0.00    5.2
2018/02/21 08:34:30.000   4208047.4574    228666.9496   4771795.2449   1   7   0.0013   0.0006   0.0016  -0.0003  -0.0004   0.0013   0.00    5.3
2018/02/21 08:35:00.000   4208047.4572    228666.9494   4771795.2453   1   7   0.0013   0.0006   0.0016  -0.0003  -0.0004   0.0013   0.00    5.4
2018/02/21 08:35:30.000   4208047.4571    228666.9491   4771795.2458   1   7   0.0013   0.0006   0.0016  -0.0003  -0.0004   0.0012   0.00    5.6
2018/02/21 08:36:00.000   4208047.4570    228666.9488   4771795.2462   1   7   0.0013   0.0006   0.0016  -0.0003  -0.0004   0.0012   0.00    5.7
2018/02/21 08:36:30.000   4208047.4569    228666.9485   4771795.2464   1   7   0.0013   0.0006   0.0015  -0.0003  -0.0004   0.0012   0.00    5.9
2018/02/21 08:37:00.000   4208047.4568    228666.9482   4771795.2465   1   7   0.0013   0.0006   0.0015  -0.0003  -0.0004   0.0012   0.00    6.1
2018/02/21 08:37:30.000   4208047.4567    228666.9480   4771795.2467   1   7   0.0013   0.0006   0.0015  -0.0003  -0.0004   0.0012   0.00    6.2
2018/02/21 08:38:00.000   4208047.4566    228666.9478   4771795.2468   1   7   0.0013   0.0006   0.0015  -0.0003  -0.0004   0.0012   0.00    6.3
2018/02/21 08:38:30.000   4208047.4565    228666.9476   4771795.2471   1   7   0.0013   0.0006   0.0015  -0.0003  -0.0004   0.0012   0.00    6.3
2018/02/21 08:39:00.000   4208047.4564    228666.9475   4771795.2473   1   7   0.0013   0.0006   0.0015  -0.0003  -0.0004   0.0012   0.00    6.3
2018/02/21 08:39:30.000   4208047.4563    228666.9473   4771795.2475   1   7   0.0013   0.0006   0.0015  -0.0003  -0.0004   0.0012   0.00    6.4
2018/02/21 08:40:00.000   4208047.4562    228666.9472   4771795.2478   1   7   0.0013   0.0006   0.0015  -0.0003  -0.0004   0.0012   0.00    6.3
2018/02/21 08:40:30.000   4208047.4561    228666.9471   4771795.2482   1   7   0.0012   0.0006   0.0015  -0.0003  -0.0004   0.0012   0.00    6.3
2018/02/21 08:41:00.000   4208047.4560    228666.9469   4771795.2484   1   7   0.0012   0.0006   0.0015  -0.0003  -0.0004   0.0012   0.00    6.3
2018/02/21 08:41:30.000   4208047.4559    228666.9468   4771795.2488   1   7   0.0012   0.0006   0.0015  -0.0003  -0.0004   0.0012   0.00    6.3
2018/02/21 08:42:00.000   4208047.4558    228666.9466   4771795.2491   1   7   0.0012   0.0005   0.0015  -0.0003  -0.0004   0.0012   0.00    6.2
2018/02/21 08:42:30.000   4208047.4557    228666.9464   4771795.2493   1   7   0.0012   0.0005   0.0015  -0.0003  -0.0004   0.0012   0.00    6.3
2018/02/21 08:43:00.000   4208047.4557    228666.9462   4771795.2494   1   7   0.0012   0.0005   0.0015  -0.0003  -0.0004   0.0012   0.00    6.5
2018/02/21 08:43:30.000   4208047.4558    228666.9460   4771795.2496   1   7   0.0012   0.0005   0.0015  -0.0003  -0.0004   0.0012   0.00    6.8
2018/02/21 08:44:00.000   4208047.4558    228666.9457   4771795.2497   1   7   0.0012   0.0005   0.0015  -0.0003  -0.0004   0.0012   0.00    7.1
2018/02/21 08:44:30.000   4208047.4558    228666.9455   4771795.2496   1   7   0.0012   0.0005   0.0015  -0.0003  -0.0004   0.0012   0.00    7.5
2018/02/21 08:45:00.000   4208047.4559    228666.9453   4771795.2495   1   7   0.0012   0.0005   0.0015  -0.0003  -0.0004   0.0012   0.00    7.7
2018/02/21 08:45:30.000   4208047.4560    228666.9451   4771795.2493   1   7   0.0012   0.0005   0.0015  -0.0003  -0.0004   0.0012   0.00    7.9
2018/02/21 08:46:00.000   4208047.4561    228666.9449   4771795.2491   1   7   0.0012   0.0005   0.0015  -0.0003  -0.0004   0.0012   0.00    8.1
2018/02/21 08:46:30.000   4208047.4561    228666.9447   4771795.2487   1   7   0.0012   0.0005   0.0015  -0.0003  -0.0004   0.0012   0.00    8.3
2018/02/21 08:47:00.000   4208047.4562    228666.9445   4771795.2484   1   7   0.0012   0.0005   0.0015  -0.0003  -0.0004   0.0012   0.00    8.5
2018/02/21 08:47:30.000   4208047.4563    228666.9444   4771795.2481   1   7   0.0012   0.0005   0.0015  -0.0003  -0.0004   0.0012   0.00    8.8
2018/02/21 08:48:00.000   4208047.4563    228666.9443   4771795.2478   1   7   0.0012   0.0005   0.0015  -0.0003  -0.0004   0.0012   0.00    9.1
2018/02/21 08:48:30.000   4208047.4564    228666.9443   4771795.2475   1   7   0.0012   0.0005   0.0015  -0.0003  -0.0004   0.0011   0.00    9.4
2018/02/21 08:49:00.000   4208047.4565    228666.9442   4771795.2472   1   7   0.0012   0.0005   0.0014  -0.0003  -0.0004   0.0011   0.00    9.8
2018/02/21 08:49:30.000   4208047.4565    228666.9441   4771795.2467   1   7   0.0012   0.0005   0.0014  -0.0003  -0.0004   0.0011   0.00   10.2
2018/02/21 08:50:00.000   4208047.4565    228666.9442   4771795.2462   1   7   0.0012   0.0005   0.0014  -0.0003  -0.0004   0.0011   0.00   10.6
2018/02/21 08:50:30.000   4208047.4619    228666.9422   4771795.2505   1   6   0.0019   0.0008   0.0020  -0.0010  -0.0010   0.0018   0.00   12.2
2018/02/21 08:51:00.000   4208047.4619    228666.9421   4771795.2501   1   6   0.0019   0.0008   0.0020  -0.0010  -0.0009   0.0018   0.00   12.7
2018/02/21 08:51:30.000   4208047.4619    228666.9420   4771795.2494   1   6   0.0019   0.0008   0.0020  -0.0010  -0.0009   0.0018   0.00   13.1
2018/02/21 08:52:00.000   4208047.4619    228666.9418   4771795.2489   1   6   0.0019   0.0008   0.0020  -0.0009  -0.0009   0.0018   0.00   13.6
2018/02/21 08:52:30.000   4208047.4619    228666.9416   4771795.2483   1   6   0.0019   0.0008   0.0019  -0.0009  -0.0009   0.0018   0.00   13.9
2018/02/21 08:53:00.000   4208047.4616    228666.9416   4771795.2476   1   6   0.0019   0.0008   0.0019  -0.0009  -0.0009   0.0018   0.00   14.3
2018/02/21 08:53:30.000   4208047.4615    228666.9414   4771795.2469   1   6   0.0019   0.0008   0.0019  -0.0009  -0.0009   0.0018   0.00   14.6
2018/02/21 08:54:00.000   4208047.4613    228666.9413   4771795.2462   1   6   0.0019   0.0007   0.0019  -0.0009  -0.0009   0.0018   0.00   14.9
2018/02/21 08:54:30.000   4208047.4611    228666.9412   4771795.2455   1   6   0.0019   0.0007   0.0019  -0.0009  -0.0009   0.0018   0.00   15.1
2018/02/21 08:55:00.000   4208047.4609    228666.9411   4771795.2446   1   6   0.0018   0.0007   0.0019  -0.0009  -0.0009   0.0017   0.00   15.5
2018/02/21 08:55:30.000   4208047.4607    228666.9410   4771795.2439   1   6   0.0018   0.0007   0.0019  -0.0009  -0.0009   0.0017   0.00   15.7
2018/02/21 08:56:00.000   4208047.4605    228666.9410   4771795.2432   1   6   0.0018   0.0007   0.0019  -0.0009  -0.0009   0.0017   0.00   16.0
2018/02/21 08:56:30.000   4208047.4602    228666.9409   4771795.2425   1   6   0.0018   0.0007   0.0019  -0.0009  -0.0009   0.0017   0.00   16.2
2018/02/21 08:57:00.000   4208047.4600    228666.9408   4771795.2418   1   6   0.0018   0.0007   0.0018  -0.0009  -0.0009   0.0017   0.00   16.5
2018/02/21 08:57:30.000   4208047.4599    228666.9407   4771795.2413   1   6   0.0018   0.0007   0.0018  -0.0009  -0.0009   0.0017   0.00   16.7
2018/02/21 08:58:00.000   4208047.4598    228666.9406   4771795.2408   1   6   0.0018   0.0007   0.0018  -0.0009  -0.0008   0.0017   0.00   16.8
2018/02/21 08:58:30.000   4208047.4597    228666.9405   4771795.2402   1   6   0.0018   0.0007   0.0018  -0.0008  -0.0008   0.0017   0.00   17.0
2018/02/21 08:59:00.000   4208047.4595    228666.9404   4771795.2395   1   6   0.0018   0.0007   0.0018  -0.0008  -0.0008   0.0016   0.00   17.0
2018/02/21 08:59:30.000   4208047.4591    228666.9404   4771795.2386   1   6   0.0017   0.0007   0.0018  -0.0008  -0.0008   0.0016   0.00   17.3
2018/02/21 09:00:00.000   4208047.4588    228666.9405   4771795.2378   1   6   0.0017   0.0007   0.0018  -0.0008  -0.0008   0.0016   0.00   17.9
2018/02/21 09:00:30.000   4208047.4587    228666.9406   4771795.2372   1   6   0.0017   0.0007   0.0018  -0.0008  -0.0008   0.0016   0.00   18.5
2018/02/21 09:01:00.000   4208047.4584    228666.9406   4771795.2365   1   6   0.0017   0.0007   0.0018  -0.0008  -0.0008   0.0016   0.00   19.0
2018/02/21 09:01:30.000   4208047.4582    228666.9407   4771795.2359   1   6   0.0017   0.0007   0.0017  -0.0008  -0.0008   0.0016   0.00   19.7
2018/02/21 09:02:00.000   4208047.4581    228666.9408   4771795.2354   1   6   0.0017   0.0007   0.0017  -0.0008  -0.0008   0.0016   0.00   20.4
2018/02/21 09:02:30.000   4208047.4582    228666.9409   4771795.2350   1   6   0.0017   0.0007   0.0017  -0.0008  -0.0008   0.0016   0.00   21.3
2018/02/21 09:03:00.000   4208047.4582    228666.9410   4771795.2346   1   6   0.0017   0.0007   0.0017  -0.0008  -0.0008   0.0015   0.00   22.4
2018/02/21 09:03:30.000   4208047.4581    228666.9410   4771795.2341   1   6   0.0017   0.0007   0.0017  -0.0008  -0.0008   0.0015   0.00   23.5
2018/02/21 09:04:00.000   4208047.4580    228666.9412   4771795.2336   1   6   0.0016   0.0007   0.0017  -0.0008  -0.0007   0.0015   0.00   24.6
2018/02/21 09:04:30.000   4208047.4579    228666.9412   4771795.2332   1   6   0.0016   0.0007   0.0017  -0.0007  -0.0007   0.0015   0.00   25.6
2018/02/21 09:05:00.000   4208047.4578    228666.9413   4771795.2327   1   6   0.0016   0.0007   0.0017  -0.0007  -0.0007   0.0015   0.00   26.5
2018/02/21 09:05:30.000   4208047.4578    228666.9413   4771795.2323   1   6   0.0016   0.0007   0.0016  -0.0007  -0.0007   0.0015   0.00   27.3
2018/02/21 09:06:00.000   4208047.4576    228666.9413   4771795.2319   1   6   0.0016   0.0007   0.0016  -0.0007  -0.0007   0.0015   0.00   28.4
2018/02/21 09:06:30.000   4208047.4574    228666.9413   4771795.2313   1   6   0.0016   0.0007   0.0016  -0.0007  -0.0007   0.0015   0.00   29.6
2018/02/21 09:07:00.000   4208047.4573    228666.9414   4771795.2308   1   6   0.0016   0.0007   0.0016  -0.0007  -0.0007   0.0015   0.00   31.0
2018/02/21 09:07:30.000   4208047.4572    228666.9415   4771795.2304   1   6   0.0016   0.0007   0.0016  -0.0007  -0.0007   0.0014   0.00   32.9
2018/02/21 09:08:00.000   4208047.4571    228666.9416   4771795.2300   1   6   0.0016   0.0006   0.0016  -0.0007  -0.0007   0.0014   0.00   35.2
2018/02/21 09:08:30.000   4208047.4569    228666.9418   4771795.2295   1   6   0.0016   0.0006   0.0016  -0.0007  -0.0007   0.0014   0.00   37.7
2018/02/21 09:09:00.000   4208047.4567    228666.9420   4771795.2290   1   6   0.0015   0.0006   0.0016  -0.0007  -0.0007   0.0014   0.00   40.5
2018/02/21 09:09:30.000   4208047.4565    228666.9423   4771795.2286   1   6   0.0015   0.0006   0.0015  -0.0007  -0.0007   0.0014   0.00   43.4
2018/02/21 09:10:00.000   4208047.4563    228666.9425   4771795.2281   1   6   0.0015   0.0006   0.0015  -0.0007  -0.0007   0.0014   0.00   46.6
2018/02/21 09:10:30.000   4208047.4561    228666.9426   4771795.2277   1   6   0.0015   0.0006   0.0015  -0.0007  -0.0007   0.0014   0.00   49.1
2018/02/21 09:11:00.000   4208047.4560    228666.9426   4771795.2272   1   6   0.0015   0.0006   0.0015  -0.0006  -0.0006   0.0014   0.00   50.6
2018/02/21 09:11:30.000   4208047.4558    228666.9427   4771795.2269   1   6   0.0015   0.0006   0.0015  -0.0006  -0.0006   0.0013   0.00   52.9
2018/02/21 09:12:00.000   4208047.4557    228666.9428   4771795.2265   1   6   0.0015   0.0006   0.0015  -0.0006  -0.0006   0.0013   0.00   55.7
2018/02/21 09:12:30.000   4208047.4688    228666.9091   4771795.2165   2   7   0.0033   0.0048   0.0018   0.0023   0.0011   0.0015   0.00    1.1
2018/02/21 09:13:00.000   4208047.4676    228666.9107   4771795.2173   2   7   0.0033   0.0048   0.0018   0.0023   0.0011   0.0015   0.00    1.1
2018/02/21 09:13:30.000   4208047.4668    228666.9126   4771795.2181   2   7   0.0032   0.0048   0.0018   0.0023   0.0011   0.0015   0.00    1.2
2018/02/21 09:14:00.000   4208047.4660    228666.9142   4771795.2188   2   7   0.0032   0.0047   0.0018   0.0022   0.0011   0.0015   0.00    1.2
2018/02/21 09:14:30.000   4208047.4652    228666.9154   4771795.2193   2   7   0.0032   0.0047   0.0018   0.0022   0.0011   0.0014   0.00    1.3
2018/02/21 09:15:00.000   4208047.4643    228666.9166   4771795.2197   2   7   0.0031   0.0047   0.0017   0.0022   0.0011   0.0014   0.00    1.3
2018/02/21 09:15:30.000   4208047.4632    228666.9174   4771795.2199   2   7   0.0031   0.0046   0.0017   0.0021   0.0011   0.0014   0.00    1.3
2018/02/21 09:16:00.000   4208047.4623    228666.9180   4771795.2200   2   7   0.0031   0.0046   0.0017   0.0021   0.0011   0.0014   0.00    1.3
2018/02/21 09:16:30.000   4208047.4617    228666.9186   4771795.2200   2   7   0.0031   0.0046   0.0017   0.0021   0.0010   0.0014   0.00    1.4
2018/02/21 09:17:00.000   4208047.4611    228666.9189   4771795.2198   2   7   0.0030   0.0046   0.0017   0.0021   0.0010   0.0014   0.00    1.4
2018/02/21 09:17:30.000   4208047.4605    228666.9193   4771795.2198   2   7   0.0030   0.0045   0.0017   0.0020   0.0010   0.0014   0.00    1.5
2018/02/21 09:18:00.000   4208047.4597    228666.9190   4771795.2195   2   7   0.0030   0.0045   0.0017   0.0020   0.0010   0.0014   0.00    1.7
2018/02/21 09:18:30.000   4208047.4589    228666.9188   4771795.2194   2   7   0.0030   0.0045   0.0017   0.0020   0.0010   0.0014   0.00    1.9
2018/02/21 09:19:00.000   4208047.4584    228666.9193   4771795.2194   2   7   0.0029   0.0044   0.0017   0.0019   0.0010   0.0013   0.00    2.0
2018/02/21 09:19:30.000   4208047.4579    228666.9194   4771795.2193   2   7   0.0029   0.0044   0.0016   0.0019   0.0010   0.0013   0.00    2.2
2018/02/21 09:20:00.000   4208047.4575    228666.9191   4771795.2191   2   7   0.0029   0.0044   0.0016   0.0019   0.0010   0.0013   0.00    2.4
2018/02/21 09:20:30.000   4208047.4573    228666.9185   4771795.2187   2   7   0.0029   0.0044   0.0016   0.0019   0.0009   0.0013   0.00    2.7
2018/02/21 09:21:00.000   4208047.4597    228666.9475   4771795.2278   1   7   0.0013   0.0006   0.0013  -0.0005  -0.0005   0.0011   0.00    3.0
2018/02/21 09:21:30.000   4208047.4594    228666.9474   4771795.2273   1   7   0.0013   0.0006   0.0013  -0.0005  -0.0005   0.0011   0.00    3.4
2018/02/21 09:22:00.000   4208047.4592    228666.9474   4771795.2268   1   7   0.0013   0.0006   0.0013  -0.0005  -0.0005   0.0011   0.00    3.8
2018/02/21 09:22:30.000   4208047.4590    228666.9474   4771795.2264   1   7   0.0013   0.0006   0.0013  -0.0005  -0.0005   0.0011   0.00    4.3
2018/02/21 09:23:00.000   4208047.4587    228666.9475   4771795.2261   1   7   0.0013   0.0006   0.0012  -0.0005  -0.0005   0.0011   0.00    4.8
2018/02/21 09:23:30.000   4208047.4588    228666.9476   4771795.2288   1   6   0.0013   0.0006   0.0014  -0.0005  -0.0005   0.0011   0.00    6.0
2018/02/21 09:24:00.000   4208047.4586    228666.9475   4771795.2285   1   6   0.0013   0.0006   0.0014  -0.0005  -0.0005   0.0011   0.00    6.7
2018/02/21 09:24:30.000   4208047.4585    228666.9475   4771795.2283   1   6   0.0013   0.0006   0.0014  -0.0005  -0.0005   0.0011   0.00    7.5
2018/02/21 09:25:00.000   4208047.4582    228666.9475   4771795.2280   1   6   0.0013   0.0006   0.0014  -0.0005  -0.0005   0.0011   0.00    8.5
2018/02/21 09:25:30.000   4208047.4581    228666.9475   4771795.2278   1   6   0.0013   0.0006   0.0013  -0.0005  -0.0005   0.0011   0.00    9.7
2018/02/21 09:26:00.000   4208047.4579    228666.9475   4771795.2276   1   6   0.0013   0.0006   0.0013  -0.0005  -0.0005   0.0010   0.00   11.0
2018/02/21 09:26:30.000   4208047.4578    228666.9474   4771795.2274   1   6   0.0013   0.0006   0.0013  -0.0005  -0.0005   0.0010   0.00   12.4
2018/02/21 09:27:00.000   4208047.4576    228666.9474   4771795.2272   1   6   0.0013   0.0006   0.0013  -0.0005  -0.0005   0.0010   0.00   14.0
2018/02/21 09:27:30.000   4208047.4575    228666.9474   4771795.2272   1   6   0.0013   0.0006   0.0013  -0.0005  -0.0005   0.0010   0.00   15.6
2018/02/21 09:28:00.000   4208047.4574    228666.9473   4771795.2272   1   6   0.0013   0.0006   0.0013  -0.0004  -0.0005   0.0010   0.00   17.2
2018/02/21 09:28:30.000   4208047.4573    228666.9472   4771795.2270   1   6   0.0013   0.0006   0.0013  -0.0004  -0.0005   0.0010   0.00   19.0
2018/02/21 09:29:00.000   4208047.4572    228666.9472   4771795.2268   1   6   0.0013   0.0006   0.0013  -0.0004  -0.0005   0.0010   0.00   20.9
2018/02/21 09:29:30.000   4208047.4570    228666.9471   4771795.2267   1   6   0.0013   0.0006   0.0013  -0.0004  -0.0005   0.0010   0.00   22.8
2018/02/21 09:30:00.000   4208047.4568    228666.9470   4771795.2264   1   6   0.0013   0.0006   0.0013  -0.0004  -0.0005   0.0010   0.00   24.4
2018/02/21 09:30:30.000   4208047.4566    228666.9470   4771795.2261   1   6   0.0013   0.0006   0.0013  -0.0004  -0.0005   0.0010   0.00   26.0
2018/02/21 09:31:00.000   4208047.4564    228666.9468   4771795.2257   1   6   0.0012   0.0006   0.0013  -0.0004  -0.0005   0.0010   0.00   27.2
2018/02/21 09:31:30.000   4208047.4561    228666.9467   4771795.2253   1   6   0.0012   0.0006   0.0012  -0.0004  -0.0004   0.0009   0.00   28.5
2018/02/21 09:32:00.000   4208047.4559    228666.9466   4771795.2250   1   6   0.0012   0.0006   0.0012  -0.0004  -0.0004   0.0009   0.00   29.5
2018/02/21 09:32:30.000   4208047.4557    228666.9464   4771795.2245   1   6   0.0012   0.0006   0.0012  -0.0004  -0.0004   0.0009   0.00   30.7
2018/02/21 09:33:00.000   4208047.4556    228666.9462   4771795.2240   1   6   0.0012   0.0006   0.0012  -0.0004  -0.0004   0.0009   0.00   31.6
2018/02/21 09:33:30.000   4208047.4555    228666.9460   4771795.2235   1   6   0.0012   0.0006   0.0012  -0.0004  -0.0004   0.0009   0.00   32.0
2018/02/21 09:34:00.000   4208047.4553    228666.9459   4771795.2230   1   6   0.0012   0.0006   0.0012  -0.0004  -0.0004   0.0009   0.00   32.4
2018/02/21 09:34:30.000   4208047.4552    228666.9457   4771795.2225   1   6   0.0012   0.0006   0.0012  -0.0004  -0.0004   0.0009   0.00   32.9
2018/02/21 09:35:00.000   4208047.4552    228666.9455   4771795.2221   1   6   0.0012   0.0005   0.0012  -0.0004  -0.0004   0.0009   0.00   32.9
2018/02/21 09:35:30.000   4208047.4552    228666.9453   4771795.2218   1   6   0.0012   0.0005   0.0012  -0.0004  -0.0004   0.0009   0.00   33.0
2018/02/21 09:36:00.000   4208047.4552    228666.9451   4771795.2214   1   6   0.0012   0.0005   0.0012  -0.0004  -0.0004   0.0009   0.00   33.1
2018/02/21 09:36:30.000   4208047.4552    228666.9449   4771795.2211   1   6   0.0012   0.0005   0.0012  -0.0004  -0.0004   0.0009   0.00   33.2
2018/02/21 09:37:00.000   4208047.4553    228666.9447   4771795.2207   1   6   0.0012   0.0005   0.0012  -0.0004  -0.0004   0.0009   0.00   33.4
2018/02/21 09:37:30.000   4208047.4554    228666.9446   4771795.2205   1   6   0.0012   0.0005   0.0012  -0.0004  -0.0004   0.0009   0.00   33.7
2018/02/21 09:38:00.000   4208047.4555    228666.9444   4771795.2202   1   6   0.0012   0.0005   0.0012  -0.0004  -0.0004   0.0009   0.00   33.9
2018/02/21 09:38:30.000   4208047.4556    228666.9442   4771795.2199   1   6   0.0012   0.0005   0.0012  -0.0003  -0.0004   0.0008   0.00   34.5
2018/02/21 09:39:00.000   4208047.4557    228666.9441   4771795.2197   1   6   0.0012   0.0005   0.0011  -0.0003  -0.0004   0.0008   0.00   34.8
2018/02/21 09:39:30.000   4208047.4558    228666.9439   4771795.2194   1   6   0.0012   0.0005   0.0011  -0.0003  -0.0004   0.0008   0.00   35.1
2018/02/21 09:40:00.000   4208047.4558    228666.9437   4771795.2191   1   6   0.0012   0.0005   0.0011  -0.0003  -0.0004   0.0008   0.00   35.6
2018/02/21 09:40:30.000   4208047.4560    228666.9436   4771795.2189   1   6   0.0012   0.0005   0.0011  -0.0003  -0.0004   0.0008   0.00   35.6
2018/02/21 09:41:00.000   4208047.4561    228666.9434   4771795.2187   1   6   0.0012   0.0005   0.0011  -0.0003  -0.0004   0.0008   0.00   35.5
2018/02/21 09:41:30.000   4208047.4562    228666.9432   4771795.2184   1   6   0.0012   0.0005   0.0011  -0.0003  -0.0004   0.0008   0.00   35.6
2018/02/21 09:42:00.000   4208047.4564    228666.9430   4771795.2183   1   6   0.0012   0.0005   0.0011  -0.0003  -0.0004   0.0008   0.00   35.5
2018/02/21 09:42:30.000   4208047.4566    228666.9429   4771795.2181   1   6   0.0012   0.0005   0.0011  -0.0003  -0.0004   0.0008   0.00   35.3
2018/02/21 09:43:00.000   4208047.4567    228666.9427   4771795.2180   1   6   0.0012   0.0005   0.0011  -0.0003  -0.0004   0.0008   0.00   35.4
2018/02/21 09:43:30.000   4208047.4567    228666.9425   4771795.2178   1   6   0.0012   0.0005   0.0011  -0.0003  -0.0004   0.0008   0.00   35.4
2018/02/21 09:44:00.000   4208047.4567    228666.9423   4771795.2176   1   6   0.0012   0.0005   0.0011  -0.0003  -0.0004   0.0008   0.00   35.4
2018/02/21 09:44:30.000   4208047.4569    228666.9421   4771795.2176   1   6   0.0012   0.0005   0.0011  -0.0003  -0.0004   0.0008   0.00   35.3
2018/02/21 09:45:00.000   4208047.4570    228666.9419   4771795.2177   1   6   0.0012   0.0005   0.0011  -0.0003  -0.0004   0.0008   0.00   35.3
2018/02/21 09:45:30.000   4208047.4572    228666.9416   4771795.2177   1   6   0.0012   0.0005   0.0011  -0.0003  -0.0004   0.0008   0.00   35.3
2018/02/21 09:46:00.000   4208047.4574    228666.9413   4771795.2178   1   6   0.0012   0.0005   0.0011  -0.0003  -0.0004   0.0007   0.00   35.3
2018/02/21 09:46:30.000   4208047.4576    228666.9410   4771795.2179   1   6   0.0012   0.0005   0.0011  -0.0003  -0.0004   0.0007   0.00   35.1
2018/02/21 09:47:00.000   4208047.4694    228666.9146   4771795.2174   2   7   0.0020   0.0036   0.0013   0.0010   0.0006   0.0010   0.00    1.3
2018/02/21 09:47:30.000   4208047.4700    228666.9147   4771795.2176   2   7   0.0020   0.0036   0.0013   0.0010   0.0006   0.0010   0.00    1.7
2018/02/21 09:48:00.000   4208047.4705    228666.9147   4771795.2177   2   7   0.0020   0.0036   0.0013   0.0010   0.0006   0.0010   0.00    2.0
2018/02/21 09:48:30.000   4208047.4710    228666.9145   4771795.2178   2   7   0.0020   0.0036   0.0013   0.0009   0.0006   0.0010   0.00    2.3
2018/02/21 09:49:00.000   4208047.4715    228666.9145   4771795.2180   2   7   0.0020   0.0036   0.0013   0.0009   0.0006   0.0010   0.00    2.5
2018/02/21 09:49:30.000   4208047.4719    228666.9144   4771795.2181   2   7   0.0020   0.0036   0.0013   0.0009   0.0006   0.0010   0.00    2.9
2018/02/21 09:50:00.000   4208047.4587    228666.9392   4771795.2180   1   7   0.0012   0.0005   0.0010  -0.0002  -0.0004   0.0007   0.00    3.2
2018/02/21 09:50:30.000   4208047.4590    228666.9390   4771795.2180   1   7   0.0012   0.0005   0.0010  -0.0002  -0.0004   0.0007   0.00    3.5
2018/02/21 09:51:00.000   4208047.4593    228666.9388   4771795.2181   1   7   0.0012   0.0005   0.0010  -0.0002  -0.0004   0.0007   0.00    3.8
2018/02/21 09:51:30.000   4208047.4595    228666.9385   4771795.2181   1   7   0.0012   0.0005   0.0010  -0.0002  -0.0003   0.0007   0.00    4.0
2018/02/21 09:52:00.000   4208047.4598    228666.9384   4771795.2182   1   7   0.0012   0.0005   0.0010  -0.0002  -0.0003   0.0007   0.00    4.3
2018/02/21 09:52:30.000   4208047.4600    228666.9382   4771795.2182   1   7   0.0012   0.0005   0.0010  -0.0002  -0.0003   0.0007   0.00    4.6
2018/02/21 09:53:00.000   4208047.4603    228666.9381   4771795.2182   1   7   0.0012   0.0005   0.0010  -0.0002  -0.0003   0.0007   0.00    4.9
2018/02/21 09:53:30.000   4208047.4605    228666.9380   4771795.2182   1   7   0.0012   0.0005   0.0010  -0.0002  -0.0003   0.0007   0.00    5.2
2018/02/21 09:54:00.000   4208047.4608    228666.9379   4771795.2182   1   7   0.0012   0.0005   0.0010  -0.0002  -0.0003   0.0007   0.00    5.5
2018/02/21 09:54:30.000   4208047.4610    228666.9378   4771795.2182   1   7   0.0012   0.0005   0.0010  -0.0002  -0.0003   0.0007   0.00    5.9
2018/02/21 09:55:00.000   4208047.4612    228666.9377   4771795.2182   1   7   0.0012   0.0005   0.0010  -0.0002  -0.0003   0.0007   0.00    6.3
2018/02/21 09:55:30.000   4208047.4614    228666.9376   4771795.2183   1   7   0.0012   0.0005   0.0009  -0.0002  -0.0003   0.0006   0.00    6.6
2018/02/21 09:56:00.000   4208047.4616    228666.9375   4771795.2183   1   7   0.0012   0.0005   0.0009  -0.0001  -0.0003   0.0006   0.00    7.0
2018/02/21 09:56:30.000   4208047.4618    228666.9375   4771795.2182   1   7   0.0012   0.0005   0.0009  -0.0001  -0.0003   0.0006   0.00    7.4
2018/02/21 09:57:00.000   4208047.4621    228666.9374   4771795.2182   1   7   0.0012   0.0005   0.0009  -0.0001  -0.0003   0.0006   0.00    7.7
2018/02/21 09:57:30.000   4208047.4622    228666.9373   4771795.2180   1   7   0.0012   0.0005   0.0009  -0.0001  -0.0003   0.0006   0.00    8.0
2018/02/21 09:58:00.000   4208047.4625    228666.9372   4771795.2179   1   7   0.0012   0.0005   0.0009  -0.0001  -0.0003   0.0006   0.00    8.4
2018/02/21 09:58:30.000   4208047.4627    228666.9371   4771795.2179   1   7   0.0012   0.0005   0.0009  -0.0001  -0.0003   0.0006   0.00    8.7
2018/02/21 09:59:00.000   4208047.4629    228666.9371   4771795.2178   1   7   0.0012   0.0005   0.0009  -0.0001  -0.0003   0.0006   0.00    9.2
2018/02/21 09:59:30.000   4208047.4631    228666.9370   4771795.2178   1   7   0.0012   0.0005   0.0009  -0.0001  -0.0003   0.0006   0.00    9.6
2018/02/21 10:00:00.000   4208047.4633    228666.9370   4771795.2178   1   7   0.0012   0.0005   0.0009  -0.0001  -0.0003   0.0006   0.00   10.1
2018/02/21 10:00:30.000   4208047.4635    228666.9369   4771795.2179   1   7   0.0012   0.0005   0.0009  -0.0001  -0.0003   0.0006   0.00   10.8
2018/02/21 10:01:00.000   4208047.4637    228666.9369   4771795.2180   1   7   0.0012   0.0005   0.0009  -0.0000  -0.0003   0.0006   0.00   11.4
2018/02/21 10:01:30.000   4208047.4638    228666.9369   4771795.2180   1   7   0.0012   0.0005   0.0009   0.0000  -0.0003   0.0006   0.00   12.1
2018/02/21 10:02:00.000   4208047.4639    228666.9369   4771795.2181   1   7   0.0012   0.0005   0.0009   0.0000  -0.0003   0.0006   0.00   12.8
2018/02/21 10:02:30.000   4208047.4640    228666.9368   4771795.2181   1   7   0.0012   0.0005   0.0009   0.0001  -0.0003   0.0006   0.00   13.5
2018/02/21 10:03:00.000   4208047.4641    228666.9368   4771795.2183   1   7   0.0012   0.0005   0.0009   0.0001  -0.0003   0.0006   0.00   14.3
2018/02/21 10:03:30.000   4208047.4641    228666.9367   4771795.2184   1   7   0.0012   0.0005   0.0009   0.0001  -0.0003   0.0006   0.00   15.1
2018/02/21 10:04:00.000   4208047.4643    228666.9366   4771795.2185   1   7   0.0012   0.0005   0.0009   0.0001  -0.0003   0.0006   0.00   15.9
2018/02/21 10:04:30.000   4208047.4712    228666.9049   4771795.2185   2   8   0.0017   0.0035   0.0012   0.0006   0.0005   0.0009   0.00    1.3
2018/02/21 10:05:00.000   4208047.4710    228666.9047   4771795.2185   2   8   0.0017   0.0035   0.0012   0.0006   0.0005   0.0009   0.00    1.7
2018/02/21 10:05:30.000   4208047.4707    228666.9045   4771795.2184   2   8   0.0017   0.0035   0.0012   0.0006   0.0005   0.0009   0.00    2.0
2018/02/21 10:06:00.000   4208047.4704    228666.9043   4771795.2184   2   8   0.0017   0.0034   0.0012   0.0006   0.0005   0.0009   0.00    2.3
2018/02/21 10:06:30.000   4208047.4702    228666.9041   4771795.2183   2   8   0.0017   0.0034   0.0012   0.0006   0.0005   0.0009   0.00    2.7
2018/02/21 10:07:00.000   4208047.4639    228666.9358   4771795.2198   1   8   0.0011   0.0005   0.0008   0.0001  -0.0002   0.0006   0.00    3.0
2018/02/21 10:07:30.000   4208047.4638    228666.9357   4771795.2200   1   8   0.0011   0.0005   0.0008   0.0001  -0.0002   0.0006   0.00    3.4
2018/02/21 10:08:00.000   4208047.4637    228666.9355   4771795.2203   1   8   0.0011   0.0005   0.0008   0.0001  -0.0002   0.0006   0.00    3.8
2018/02/21 10:08:30.000   4208047.4636    228666.9353   4771795.2205   1   8   0.0011   0.0005   0.0008   0.0001  -0.0002   0.0006   0.00    4.1
2018/02/21 10:09:00.000   4208047.4635    228666.9351   4771795.2207   1   8   0.0011   0.0005   0.0008   0.0001  -0.0002   0.0006   0.00    4.3
2018/02/21 10:09:30.000   4208047.4633    228666.9349   4771795.2208   1   8   0.0011   0.0005   0.0008   0.0001  -0.0002   0.0006   0.00    4.6
2018/02/21 10:10:00.000   4208047.4631    228666.9347   4771795.2209   1   8   0.0011   0.0005   0.0008   0.0001  -0.0002   0.0006   0.00    4.8
2018/02/21 10:10:30.000   4208047.4631    228666.9338   4771795.2201   1   7   0.0011   0.0005   0.0009  -0.0001   0.0001   0.0005   0.00    5.8
2018/02/21 10:11:00.000   4208047.4629    228666.9336   4771795.2203   1   7   0.0011   0.0005   0.0009  -0.0001   0.0001   0.0005   0.00    6.1
2018/02/21 10:11:30.000   4208047.4627    228666.9335   4771795.2205   1   7   0.0011   0.0005   0.0009  -0.0001   0.0001   0.0005   0.00    6.4
2018/02/21 10:12:00.000   4208047.4625    228666.9334   4771795.2206   1   7   0.0011   0.0005   0.0009  -0.0001   0.0001   0.0005   0.00    6.7
2018/02/21 10:12:30.000   4208047.4624    228666.9333   4771795.2208   1   7   0.0011   0.0005   0.0009  -0.0001   0.0001   0.0005   0.00    7.1
2018/02/21 10:13:00.000   4208047.4622    228666.9331   4771795.2211   1   7   0.0011   0.0005   0.0009  -0.0001   0.0001   0.0005   0.00    7.4
2018/02/21 10:13:30.000   4208047.4620    228666.9330   4771795.2213   1   7   0.0011   0.0005   0.0009  -0.0001   0.0001   0.0005   0.00    7.6
2018/02/21 10:14:00.000   4208047.4617    228666.9328   4771795.2216   1   7   0.0011   0.0005   0.0009  -0.0001   0.0001   0.0005   0.00    7.7
2018/02/21 10:14:30.000   4208047.4615    228666.9326   4771795.2220   1   7   0.0011   0.0005   0.0009  -0.0001   0.0001   0.0005   0.00    7.8
2018/02/21 10:15:00.000   4208047.4612    228666.9324   4771795.2224   1   7   0.0011   0.0005   0.0009  -0.0001   0.0001   0.0005   0.00    7.8
2018/02/21 10:15:30.000   4208047.4609    228666.9322   4771795.2228   1   7   0.0011   0.0005   0.0009  -0.0001   0.0001   0.0005   0.00    7.8
2018/02/21 10:16:00.000   4208047.4606    228666.9320   4771795.2233   1   7   0.0011   0.0005   0.0009  -0.0001   0.0001   0.0005   0.00    7.8
2018/02/21 10:16:30.000   4208047.4603    228666.9318   4771795.2238   1   7   0.0010   0.0005   0.0009  -0.0001   0.0001   0.0005   0.00    7.7
2018/02/21 10:17:00.000   4208047.4600    228666.9315   4771795.2244   1   7   0.0010   0.0005   0.0008  -0.0001   0.0001   0.0005   0.00    7.6
2018/02/21 10:17:30.000   4208047.4598    228666.9313   4771795.2248   1   7   0.0010   0.0005   0.0008  -0.0001   0.0001   0.0005   0.00    7.6
2018/02/21 10:18:00.000   4208047.4596    228666.9311   4771795.2253   1   7   0.0010   0.0005   0.0008  -0.0001   0.0001   0.0005   0.00    7.6
2018/02/21 10:18:30.000   4208047.4595    228666.9309   4771795.2258   1   7   0.0010   0.0005   0.0008  -0.0001   0.0001   0.0005   0.00    7.6
2018/02/21 10:19:00.000   4208047.4592    228666.9307   4771795.2263   1   7   0.0010   0.0005   0.0008  -0.0001   0.0002   0.0005   0.00    7.5
2018/02/21 10:19:30.000   4208047.4589    228666.9305   4771795.2267   1   7   0.0010   0.0005   0.0008  -0.0001   0.0002   0.0005   0.00    7.4
2018/02/21 10:20:00.000   4208047.4586    228666.9303   4771795.2271   1   7   0.0010   0.0005   0.0008  -0.0001   0.0002   0.0005   0.00    7.4
2018/02/21 10:20:30.000   4208047.4585    228666.9301   4771795.2276   1   7   0.0010   0.0005   0.0008  -0.0001   0.0002   0.0005   0.00    7.4
2018/02/21 10:21:00.000   4208047.4631    228666.9268   4771795.2297   1   6   0.0011   0.0006   0.0009  -0.0004  -0.0002   0.0006   0.00    8.5
2018/02/21 10:21:30.000   4208047.4630    228666.9266   4771795.2301   1   6   0.0011   0.0006   0.0009  -0.0004  -0.0002   0.0006   0.00    8.4
2018/02/21 10:22:00.000   4208047.4628    228666.9264   4771795.2304   1   6   0.0011   0.0006   0.0009  -0.0004  -0.0002   0.0006   0.00    8.5
2018/02/21 10:22:30.000   4208047.4627    228666.9263   4771795.2306   1   6   0.0011   0.0006   0.0009  -0.0004  -0.0002   0.0006   0.00    8.6
2018/02/21 10:23:00.000   4208047.4626    228666.9262   4771795.2308   1   6   0.0011   0.0006   0.0009  -0.0004  -0.0002   0.0006   0.00    8.8
2018/02/21 10:23:30.000   4208047.4625    228666.9261   4771795.2309   1   6   0.0011   0.0006   0.0009  -0.0004  -0.0002   0.0006   0.00    9.0
2018/02/21 10:24:00.000   4208047.4624    228666.9260   4771795.2311   1   6   0.0011   0.0006   0.0009  -0.0004  -0.0002   0.0006   0.00    9.1
2018/02/21 10:24:30.000   4208047.4623    228666.9259   4771795.2314   1   6   0.0011   0.0006   0.0009  -0.0004  -0.0002   0.0006   0.00    9.2
2018/02/21 10:25:00.000   4208047.4622    228666.9258   4771795.2317   1   6   0.0011   0.0006   0.0009  -0.0004  -0.0002   0.0006   0.00    9.3
2018/02/21 10:25:30.000   4208047.4622    228666.9258   4771795.2319   1   6   0.0011   0.0006   0.0008  -0.0004  -0.0002   0.0006   0.00    9.3
2018/02/21 10:26:00.000   4208047.4621    228666.9257   4771795.2321   1   6   0.0011   0.0006   0.0008  -0.0004  -0.0002   0.0006   0.00    9.4
2018/02/21 10:26:30.000   4208047.4621    228666.9256   4771795.2324   1   6   0.0011   0.0006   0.0008  -0.0004  -0.0001   0.0006   0.00    9.5
2018/02/21 10:27:00.000   4208047.4621    228666.9256   4771795.2325   1   6   0.0011   0.0006   0.0008  -0.0004  -0.0001   0.0006   0.00    9.6
2018/02/21 10:27:30.000   4208047.4620    228666.9256   4771795.2325   1   6   0.0010   0.0006   0.0008  -0.0004  -0.0001   0.0006   0.00    9.9
2018/02/21 10:28:00.000   4208047.4620    228666.9256   4771795.2325   1   6   0.0010   0.0006   0.0008  -0.0004  -0.0001   0.0006   0.00   10.1
2018/02/21 10:28:30.000   4208047.4618    228666.9256   4771795.2325   1   6   0.0010   0.0006   0.0008  -0.0004  -0.0001   0.0006   0.00   10.4
2018/02/21 10:29:00.000   4208047.4617    228666.9257   4771795.2324   1   6   0.0010   0.0006   0.0008  -0.0004  -0.0001   0.0006   0.00   10.7
2018/02/21 10:29:30.000   4208047.4615    228666.9257   4771795.2323   1   6   0.0010   0.0006   0.0008  -0.0004  -0.0001   0.0006   0.00   11.0
2018/02/21 10:30:00.000   4208047.4614    228666.9257   4771795.2321   1   6   0.0010   0.0006   0.0008  -0.0004  -0.0001   0.0006   0.00   11.4
2018/02/21 10:30:30.000   4208047.4613    228666.9257   4771795.2320   1   6   0.0010   0.0006   0.0008  -0.0003  -0.0001   0.0006   0.00   11.7
2018/02/21 10:31:00.000   4208047.4611    228666.9258   4771795.2319   1   6   0.0010   0.0006   0.0008  -0.0003  -0.0001   0.0006   0.00   12.1
2018/02/21 10:31:30.000   4208047.4610    228666.9258   4771795.2317   1   6   0.0010   0.0006   0.0008  -0.0003  -0.0001   0.0006   0.00   12.5
2018/02/21 10:32:00.000   4208047.4609    228666.9258   4771795.2316   1   6   0.0010   0.0006   0.0008  -0.0003  -0.0001   0.0006   0.00   13.0
2018/02/21 10:32:30.000   4208047.4607    228666.9259   4771795.2314   1   6   0.0010   0.0006   0.0008  -0.0003  -0.0001   0.0006   0.00   13.4
2018/02/21 10:33:00.000   4208047.4606    228666.9259   4771795.2313   1   6   0.0010   0.0006   0.0008  -0.0003  -0.0001   0.0006   0.00   13.9
2018/02/21 10:33:30.000   4208047.4604    228666.9260   4771795.2311   1   6   0.0010   0.0006   0.0008  -0.0003  -0.0001   0.0006   0.00   14.3
2018/02/21 10:34:00.000   4208047.4602    228666.9261   4771795.2309   1   6   0.0010   0.0005   0.0008  -0.0003  -0.0001   0.0006   0.00   14.8
2018/02/21 10:34:30.000   4208047.4599    228666.9262   4771795.2307   1   6   0.0010   0.0005   0.0008  -0.0003  -0.0001   0.0006   0.00   15.3
2018/02/21 10:35:00.000   4208047.4596    228666.9263   4771795.2305   1   6   0.0010   0.0005   0.0008  -0.0003  -0.0000   0.0006   0.00   15.8
2018/02/21 10:35:30.000   4208047.4648    228666.9082   4771795.2200   2   7   0.0014   0.0034   0.0011   0.0004   0.0004   0.0008   0.00    1.2
2018/02/21 10:36:00.000   4208047.4647    228666.9081   4771795.2201   2   7   0.0014   0.0034   0.0011   0.0004   0.0004   0.0008   0.00    1.3
2018/02/21 10:36:30.000   4208047.4645    228666.9081   4771795.2202   2   7   0.0014   0.0034   0.0011   0.0004   0.0004   0.0008   0.00    1.5
2018/02/21 10:37:00.000   4208047.4644    228666.9080   4771795.2203   2   7   0.0014   0.0034   0.0011   0.0004   0.0004   0.0008   0.00    1.6
2018/02/21 10:37:30.000   4208047.4642    228666.9080   4771795.2204   2   7   0.0014   0.0034   0.0011   0.0004   0.0004   0.0008   0.00    1.8
2018/02/21 10:38:00.000   4208047.4641    228666.9079   4771795.2205   2   7   0.0013   0.0033   0.0011   0.0004   0.0004   0.0008   0.00    1.9
2018/02/21 10:38:30.000   4208047.4640    228666.9079   4771795.2206   2   7   0.0013   0.0033   0.0011   0.0004   0.0004   0.0008   0.00    2.0
2018/02/21 10:39:00.000   4208047.4639    228666.9078   4771795.2207   2   7   0.0013   0.0033   0.0011   0.0004   0.0004   0.0008   0.00    2.2
2018/02/21 10:39:30.000   4208047.4638    228666.9077   4771795.2207   2   7   0.0013   0.0033   0.0011   0.0004   0.0004   0.0008   0.00    2.3
2018/02/21 10:40:00.000   4208047.4637    228666.9076   4771795.2208   2   7   0.0013   0.0033   0.0011   0.0004   0.0004   0.0008   0.00    2.5
2018/02/21 10:40:30.000   4208047.4636    228666.9075   4771795.2209   2   7   0.0013   0.0033   0.0011   0.0004   0.0004   0.0008   0.00    2.6
2018/02/21 10:41:00.000   4208047.4636    228666.9073   4771795.2210   2   7   0.0013   0.0033   0.0011   0.0004   0.0004   0.0008   0.00    2.8
2018/02/21 10:41:30.000   4208047.4560    228666.9265   4771795.2283   1   7   0.0009   0.0005   0.0008  -0.0003   0.0001   0.0006   0.00    3.0
2018/02/21 10:42:00.000   4208047.4559    228666.9265   4771795.2282   1   7   0.0009   0.0005   0.0008  -0.0003   0.0001   0.0006   0.00    3.2
2018/02/21 10:42:30.000   4208047.4559    228666.9265   4771795.2280   1   7   0.0009   0.0005   0.0008  -0.0003   0.0001   0.0006   0.00    3.4
2018/02/21 10:43:00.000   4208047.4558    228666.9265   4771795.2279   1   7   0.0009   0.0005   0.0008  -0.0003   0.0001   0.0006   0.00    3.6
2018/02/21 10:43:30.000   4208047.4557    228666.9266   4771795.2277   1   7   0.0009   0.0005   0.0008  -0.0003   0.0001   0.0006   0.00    3.8
2018/02/21 10:44:00.000   4208047.4556    228666.9266   4771795.2276   1   7   0.0009   0.0005   0.0008  -0.0003   0.0001   0.0006   0.00    4.1
2018/02/21 10:44:30.000   4208047.4556    228666.9266   4771795.2274   1   7   0.0009   0.0005   0.0008  -0.0003   0.0001   0.0006   0.00    4.3
2018/02/21 10:45:00.000   4208047.4555    228666.9267   4771795.2272   1   7   0.0009   0.0005   0.0008  -0.0003   0.0001   0.0006   0.00    4.5
2018/02/21 10:45:30.000   4208047.4554    228666.9267   4771795.2271   1   7   0.0009   0.0005   0.0008  -0.0003   0.0001   0.0006   0.00    4.7
2018/02/21 10:46:00.000   4208047.4554    228666.9267   4771795.2270   1   7   0.0009   0.0005   0.0008  -0.0003   0.0001   0.0006   0.00    5.0
2018/02/21 10:46:30.000   4208047.4554    228666.9268   4771795.2268   1   7   0.0009   0.0005   0.0008  -0.0003   0.0001   0.0006   0.00    5.2
2018/02/21 10:47:00.000   4208047.4553    228666.9268   4771795.2267   1   7   0.0009   0.0005   0.0008  -0.0003   0.0001   0.0006   0.00    5.4
2018/02/21 10:47:30.000   4208047.4553    228666.9268   4771795.2267   1   7   0.0009   0.0005   0.0008  -0.0003   0.0001   0.0006   0.00    5.7
2018/02/21 10:48:00.000   4208047.4552    228666.9268   4771795.2266   1   7   0.0009   0.0005   0.0008  -0.0003   0.0001   0.0006   0.00    5.9
2018/02/21 10:48:30.000   4208047.4552    228666.9268   4771795.2266   1   7   0.0009   0.0005   0.0008  -0.0003   0.0001   0.0006   0.00    6.1
2018/02/21 10:49:00.000   4208047.4551    228666.9267   4771795.2266   1   7   0.0009   0.0005   0.0008  -0.0003   0.0001   0.0006   0.00    6.3
2018/02/21 10:49:30.000   4208047.4550    228666.9267   4771795.2266   1   7   0.0009   0.0005   0.0008  -0.0003   0.0001   0.0006   0.00    6.6
2018/02/21 10:50:00.000   4208047.4550    228666.9267   4771795.2265   1   7   0.0009   0.0005   0.0008  -0.0003   0.0001   0.0006   0.00    6.8
2018/02/21 10:50:30.000   4208047.4549    228666.9267   4771795.2265   1   7   0.0009   0.0005   0.0008  -0.0003   0.0001   0.0006   0.00    7.0
2018/02/21 10:51:00.000   4208047.4548    228666.9268   4771795.2265   1   7   0.0009   0.0005   0.0008  -0.0003   0.0001   0.0006   0.00    7.2
2018/02/21 10:51:30.000   4208047.4548    228666.9269   4771795.2265   1   7   0.0009   0.0005   0.0008  -0.0003   0.0001   0.0006   0.00    7.5
2018/02/21 10:52:00.000   4208047.4548    228666.9270   4771795.2265   1   7   0.0009   0.0005   0.0008  -0.0003   0.0001   0.0006   0.00    7.8
2018/02/21 10:52:30.000   4208047.4547    228666.9270   4771795.2265   1   7   0.0009   0.0005   0.0008  -0.0003   0.0001   0.0006   0.00    8.1
2018/02/21 10:53:00.000   4208047.4546    228666.9271   4771795.2264   1   7   0.0009   0.0005   0.0008  -0.0003   0.0001   0.0006   0.00    8.4
2018/02/21 10:53:30.000   4208047.4546    228666.9272   4771795.2264   1   7   0.0009   0.0005   0.0008  -0.0003   0.0001   0.0006   0.00    8.7
2018/02/21 10:54:00.000   4208047.4545    228666.9274   4771795.2263   1   7   0.0009   0.0005   0.0008  -0.0003   0.0001   0.0006   0.00    9.0
2018/02/21 10:54:30.000   4208047.4544    228666.9276   4771795.2263   1   7   0.0008   0.0005   0.0008  -0.0003   0.0001   0.0006   0.00    9.3
2018/02/21 10:55:00.000   4208047.4543    228666.9278   4771795.2262   1   7   0.0008   0.0005   0.0008  -0.0003   0.0001   0.0006   0.00    9.6
2018/02/21 10:55:30.000   4208047.4541    228666.9280   4771795.2260   1   7   0.0008   0.0005   0.0008  -0.0003   0.0001   0.0006   0.00    9.9
2018/02/21 10:56:00.000   4208047.4539    228666.9281   4771795.2259   1   7   0.0008   0.0005   0.0008  -0.0003   0.0001   0.0006   0.00   10.2
2018/02/21 10:56:30.000   4208047.4537    228666.9283   4771795.2258   1   7   0.0008   0.0005   0.0008  -0.0003   0.0001   0.0006   0.00   10.5
2018/02/21 10:57:00.000   4208047.4535    228666.9284   4771795.2257   1   7   0.0008   0.0005   0.0008  -0.0003   0.0001   0.0006   0.00   10.9
2018/02/21 10:57:30.000   4208047.4533    228666.9286   4771795.2256   1   7   0.0008   0.0005   0.0008  -0.0003   0.0001   0.0006   0.00   11.3
2018/02/21 10:58:00.000   4208047.4531    228666.9287   4771795.2255   1   7   0.0008   0.0005   0.0008  -0.0003   0.0001   0.0006   0.00   11.7
2018/02/21 10:58:30.000   4208047.4529    228666.9288   4771795.2255   1   7   0.0008   0.0005   0.0008  -0.0002   0.0001   0.0006   0.00   12.1
2018/02/21 10:59:00.000   4208047.4527    228666.9289   4771795.2254   1   7   0.0008   0.0005   0.0008  -0.0002   0.0001   0.0006   0.00   12.5
2018/02/21 10:59:30.000   4208047.4526    228666.9290   4771795.2254   1   7   0.0008   0.0005   0.0008  -0.0002   0.0001   0.0006   0.00   12.9
2018/02/21 11:00:00.000   4208047.4524    228666.9291   4771795.2253   1   7   0.0008   0.0005   0.0008  -0.0002   0.0001   0.0006   0.00   13.3
2018/02/21 11:00:30.000   4208047.4523    228666.9292   4771795.2253   1   7   0.0008   0.0005   0.0008  -0.0002   0.0001   0.0006   0.00   13.7
2018/02/21 11:01:00.000   4208047.4523    228666.9293   4771795.2252   1   7   0.0008   0.0005   0.0008  -0.0002   0.0001   0.0006   0.00   14.1
2018/02/21 11:01:30.000   4208047.4522    228666.9294   4771795.2252   1   7   0.0008   0.0005   0.0008  -0.0002   0.0001   0.0006   0.00   14.5
2018/02/21 11:02:00.000   4208047.4520    228666.9298   4771795.2252   1   7   0.0008   0.0005   0.0009  -0.0002   0.0001   0.0006   0.00   15.0
2018/02/21 11:02:30.000   4208047.4518    228666.9298   4771795.2252   1   7   0.0008   0.0005   0.0009  -0.0002   0.0001   0.0006   0.00   15.3
2018/02/21 11:03:00.000   4208047.4517    228666.9299   4771795.2252   1   7   0.0008   0.0005   0.0009  -0.0002   0.0001   0.0006   0.00   15.6
2018/02/21 11:03:30.000   4208047.4516    228666.9299   4771795.2252   1   7   0.0008   0.0005   0.0009  -0.0002   0.0001   0.0006   0.00   16.0
2018/02/21 11:04:00.000   4208047.4514    228666.9299   4771795.2252   1   7   0.0008   0.0005   0.0009  -0.0002   0.0001   0.0006   0.00   16.3
2018/02/21 11:04:30.000   4208047.4513    228666.9300   4771795.2252   1   7   0.0008   0.0005   0.0009  -0.0002   0.0001   0.0006   0.00   16.6
2018/02/21 11:05:00.000   4208047.4511    228666.9300   4771795.2252   1   7   0.0008   0.0005   0.0009  -0.0002   0.0001   0.0006   0.00   17.0
2018/02/21 11:05:30.000   4208047.4509    228666.9301   4771795.2252   1   7   0.0008   0.0005   0.0009  -0.0002   0.0001   0.0006   0.00   17.2
2018/02/21 11:06:00.000   4208047.4506    228666.9302   4771795.2252   1   7   0.0008   0.0005   0.0009  -0.0002   0.0001   0.0006   0.00   17.5
2018/02/21 11:06:30.000   4208047.4505    228666.9302   4771795.2252   1   7   0.0008   0.0005   0.0009  -0.0002   0.0001   0.0006   0.00   17.8
2018/02/21 11:07:00.000   4208047.4504    228666.9303   4771795.2252   1   7   0.0008   0.0005   0.0009  -0.0002   0.0001   0.0006   0.00   18.0
2018/02/21 11:07:30.000   4208047.4504    228666.9303   4771795.2252   1   7   0.0008   0.0005   0.0009  -0.0002   0.0001   0.0006   0.00   18.3
2018/02/21 11:08:00.000   4208047.4504    228666.9303   4771795.2252   1   7   0.0008   0.0005   0.0009  -0.0002   0.0001   0.0006   0.00   18.5
2018/02/21 11:08:30.000   4208047.4504    228666.9303   4771795.2253   1   7   0.0008   0.0005   0.0009  -0.0002   0.0001   0.0006   0.00   18.7
2018/02/21 11:09:00.000   4208047.4506    228666.9302   4771795.2252   1   7   0.0008   0.0005   0.0009  -0.0002   0.0001   0.0006   0.00   19.0
2018/02/21 11:09:30.000   4208047.4507    228666.9302   4771795.2252   1   7   0.0008   0.0005   0.0009  -0.0002   0.0001   0.0006   0.00   19.2
2018/02/21 11:10:00.000   4208047.4507    228666.9302   4771795.2252   1   7   0.0008   0.0005   0.0009  -0.0002   0.0001   0.0006   0.00   19.4
2018/02/21 11:10:30.000   4208047.4507    228666.9302   4771795.2252   1   7   0.0008   0.0005   0.0009  -0.0002   0.0001   0.0006   0.00   19.7
2018/02/21 11:11:00.000   4208047.4508    228666.9302   4771795.2251   1   7   0.0008   0.0005   0.0009  -0.0002   0.0001   0.0006   0.00   20.0
2018/02/21 11:11:30.000   4208047.4509    228666.9303   4771795.2251   1   7   0.0008   0.0005   0.0009  -0.0002   0.0001   0.0006   0.00   20.2
2018/02/21 11:12:00.000   4208047.4509    228666.9303   4771795.2251   1   7   0.0008   0.0005   0.0009  -0.0002   0.0001   0.0006   0.00   20.5
2018/02/21 11:12:30.000   4208047.4509    228666.9304   4771795.2251   1   7   0.0008   0.0005   0.0009  -0.0002   0.0001   0.0006   0.00   20.7
2018/02/21 11:13:00.000   4208047.4509    228666.9304   4771795.2251   1   7   0.0008   0.0005   0.0009  -0.0002   0.0001   0.0006   0.00   20.9
2018/02/21 11:13:30.000   4208047.4508    228666.9305   4771795.2252   1   7   0.0008   0.0005   0.0009  -0.0002   0.0001   0.0006   0.00   21.2
2018/02/21 11:14:00.000   4208047.4507    228666.9306   4771795.2252   1   7   0.0008   0.0005   0.0009  -0.0002   0.0001   0.0006   0.00   21.2
2018/02/21 11:14:30.000   4208047.4506    228666.9307   4771795.2253   1   7   0.0008   0.0005   0.0009  -0.0002   0.0001   0.0006   0.00   21.0
2018/02/21 11:15:00.000   4208047.4504    228666.9308   4771795.2254   1   7   0.0008   0.0005   0.0009  -0.0002   0.0001   0.0006   0.00   20.6
2018/02/21 11:15:30.000   4208047.4501    228666.9309   4771795.2255   1   7   0.0008   0.0005   0.0009  -0.0002   0.0001   0.0006   0.00   20.2
2018/02/21 11:16:00.000   4208047.4499    228666.9310   4771795.2257   1   7   0.0008   0.0005   0.0009  -0.0002   0.0001   0.0006   0.00   19.7
2018/02/21 11:16:30.000   4208047.4497    228666.9311   4771795.2258   1   7   0.0008   0.0005   0.0009  -0.0002   0.0001   0.0006   0.00   19.3
2018/02/21 11:17:00.000   4208047.4494    228666.9312   4771795.2259   1   7   0.0008   0.0005   0.0009  -0.0002   0.0001   0.0006   0.00   18.7
2018/02/21 11:17:30.000   4208047.4491    228666.9314   4771795.2261   1   7   0.0008   0.0005   0.0009  -0.0002   0.0001   0.0006   0.00   18.2
2018/02/21 11:18:00.000   4208047.4489    228666.9315   4771795.2262   1   7   0.0008   0.0005   0.0009  -0.0002   0.0001   0.0006   0.00   17.7
2018/02/21 11:18:30.000   4208047.4487    228666.9316   4771795.2263   1   7   0.0008   0.0004   0.0009  -0.0002   0.0001   0.0006   0.00   17.2
2018/02/21 11:19:00.000   4208047.4486    228666.9317   4771795.2264   1   7   0.0008   0.0004   0.0009  -0.0002   0.0001   0.0006   0.00   17.0
2018/02/21 11:19:30.000   4208047.4486    228666.9317   4771795.2265   1   7   0.0008   0.0004   0.0009  -0.0002   0.0001   0.0006   0.00   16.8
2018/02/21 11:20:00.000   4208047.4485    228666.9317   4771795.2266   1   7   0.0008   0.0004   0.0009  -0.0002   0.0001   0.0006   0.00   16.6
2018/02/21 11:20:30.000   4208047.4485    228666.9318   4771795.2267   1   7   0.0008   0.0004   0.0009  -0.0002   0.0001   0.0006   0.00   16.5
2018/02/21 11:21:00.000   4208047.4485    228666.9318   4771795.2268   1   7   0.0008   0.0004   0.0009  -0.0002   0.0001   0.0006   0.00   16.4
2018/02/21 11:21:30.000   4208047.4484    228666.9318   4771795.2269   1   7   0.0008   0.0004   0.0009  -0.0002   0.0001   0.0006   0.00   16.3
2018/02/21 11:22:00.000   4208047.4484    228666.9319   4771795.2270   1   7   0.0008   0.0004   0.0009  -0.0002   0.0001   0.0006   0.00   16.2
2018/02/21 11:22:30.000   4208047.4484    228666.9319   4771795.2271   1   7   0.0008   0.0004   0.0009  -0.0002   0.0001   0.0006   0.00   16.1
