% program   : RTKPOST-QT ver.2.4.3 b27
% inp file  : /home/prof/Projet_geodesieSGRUEL/21_03_2018/sxj6052z.18o
% inp file  : /home/prof/Projet_geodesieSGRUEL/52/bogu052z.18o
% inp file  : /home/prof/Projet_geodesieSGRUEL/52/bogu052z.18n
% inp file  : /home/prof/Projet_geodesieSGRUEL/21_03_2018/brdc052z.18n
% obs start : 2018/02/21 08:00:00.0 GPST (week1989 288000.0s)
% obs end   : 2018/02/21 16:59:30.0 GPST (week1989 320370.0s)
% pos mode  : static
% freqs     : L1+L2
% solution  : forward
% elev mask : 15.0 deg
% dynamics  : off
% tidecorr  : off
% ionos opt : broadcast
% tropo opt : saastamoinen
% ephemeris : broadcast
% amb res   : continuous
% val thres : 3.0
% antenna1  :                       ( 0.0000  0.0000  0.0000)
% antenna2  : AERAT1675_120   SPKE  ( 0.0000  0.0000  0.0720)
% ref pos   :  4151675.3898     80688.5519   4825309.5977
%
% (x/y/z-ecef=WGS84,Q=1:fix,2:float,3:sbas,4:dgps,5:single,6:ppp,ns=# of satellites)
%  GPST                      x-ecef(m)      y-ecef(m)      z-ecef(m)   Q  ns   sdx(m)   sdy(m)   sdz(m)  sdxy(m)  sdyz(m)  sdzx(m) age(s)  ratio
2018/02/21 08:00:00.000   4136503.5212     87780.3054   4838110.3634   2   7   0.9170   0.4302   0.9759  -0.2008  -0.2291   0.8141   0.00    1.6
2018/02/21 08:00:30.000   4136503.4581     87780.1483   4838110.5117   2   7   0.5714   0.3010   0.5724  -0.0810  -0.1142   0.4706   0.00    1.9
2018/02/21 08:01:00.000   4136503.5470     87780.1572   4838110.7613   2   7   0.4070   0.2420   0.3783   0.0581  -0.0496   0.3051   0.00    2.7
2018/02/21 08:01:30.000   4136503.5731     87780.1451   4838110.8177   2   7   0.3119   0.2062   0.2692   0.0824   0.0276   0.2133   0.00    2.7
2018/02/21 08:02:00.000   4136503.5834     87780.0081   4838110.9601   2   7   0.2507   0.1814   0.2025   0.0887   0.0413   0.1581   0.00    2.4
2018/02/21 08:02:30.000   4136503.5936     87779.9504   4838110.9653   2   7   0.2084   0.1628   0.1587   0.0893   0.0436   0.1229   0.00    2.1
2018/02/21 08:03:00.000   4136503.6122     87779.9202   4838110.8450   2   7   0.1776   0.1482   0.1285   0.0877   0.0428   0.0992   0.00    2.2
2018/02/21 08:03:30.000   4136503.5835     87779.8592   4838110.6991   2   7   0.1542   0.1362   0.1066   0.0849   0.0411   0.0825   0.00    2.4
2018/02/21 08:04:00.000   4136503.6323     87779.8505   4838110.5978   2   7   0.1360   0.1261   0.0903   0.0816   0.0390   0.0702   0.00    2.7
2018/02/21 08:04:30.000   4136503.6374     87779.9318   4838110.8922   1   7   0.0030   0.0014   0.0032  -0.0007  -0.0008   0.0027   0.00    3.2
2018/02/21 08:05:00.000   4136503.6387     87779.9306   4838110.8932   1   7   0.0028   0.0013   0.0030  -0.0006  -0.0007   0.0025   0.00    3.6
2018/02/21 08:05:30.000   4136503.6393     87779.9297   4838110.8941   1   7   0.0027   0.0013   0.0029  -0.0006  -0.0007   0.0024   0.00    4.2
2018/02/21 08:06:00.000   4136503.6387     87779.9290   4838110.8939   1   7   0.0026   0.0012   0.0028  -0.0006  -0.0007   0.0023   0.00    4.8
2018/02/21 08:06:30.000   4136503.6379     87779.9289   4838110.8937   1   7   0.0025   0.0012   0.0027  -0.0006  -0.0007   0.0023   0.00    5.4
2018/02/21 08:07:00.000   4136503.6365     87779.9289   4838110.8932   1   7   0.0024   0.0011   0.0026  -0.0006  -0.0006   0.0022   0.00    6.1
2018/02/21 08:07:30.000   4136503.6348     87779.9291   4838110.8923   1   7   0.0024   0.0011   0.0026  -0.0005  -0.0006   0.0021   0.00    6.8
2018/02/21 08:08:00.000   4136503.6330     87779.9290   4838110.8911   1   7   0.0023   0.0011   0.0025  -0.0005  -0.0006   0.0021   0.00    7.4
2018/02/21 08:08:30.000   4136503.6315     87779.9290   4838110.8901   1   7   0.0022   0.0010   0.0024  -0.0005  -0.0006   0.0020   0.00    7.8
2018/02/21 08:09:00.000   4136503.6302     87779.9290   4838110.8893   1   7   0.0022   0.0010   0.0024  -0.0005  -0.0006   0.0020   0.00    8.4
2018/02/21 08:09:30.000   4136503.6289     87779.9290   4838110.8884   1   7   0.0021   0.0010   0.0023  -0.0005  -0.0006   0.0019   0.00    8.8
2018/02/21 08:10:00.000   4136503.6278     87779.9290   4838110.8876   1   7   0.0021   0.0009   0.0023  -0.0005  -0.0006   0.0019   0.00    9.1
2018/02/21 08:10:30.000   4136503.6263     87779.9291   4838110.8862   1   7   0.0020   0.0009   0.0022  -0.0005  -0.0006   0.0019   0.00    9.7
2018/02/21 08:11:00.000   4136503.6251     87779.9291   4838110.8854   1   7   0.0020   0.0009   0.0022  -0.0005  -0.0005   0.0018   0.00   10.2
2018/02/21 08:11:30.000   4136503.6243     87779.9290   4838110.8847   1   7   0.0019   0.0009   0.0022  -0.0005  -0.0005   0.0018   0.00   10.8
2018/02/21 08:12:00.000   4136503.6233     87779.9290   4838110.8840   1   7   0.0019   0.0009   0.0021  -0.0005  -0.0005   0.0018   0.00   11.3
2018/02/21 08:12:30.000   4136503.6227     87779.9291   4838110.8834   1   7   0.0019   0.0009   0.0021  -0.0004  -0.0005   0.0017   0.00   11.9
2018/02/21 08:13:00.000   4136503.6222     87779.9292   4838110.8830   1   7   0.0018   0.0008   0.0021  -0.0004  -0.0005   0.0017   0.00   12.8
2018/02/21 08:13:30.000   4136503.6219     87779.9293   4838110.8831   1   7   0.0018   0.0008   0.0020  -0.0004  -0.0005   0.0017   0.00   14.2
2018/02/21 08:14:00.000   4136503.6212     87779.9297   4838110.8831   1   7   0.0018   0.0008   0.0020  -0.0004  -0.0005   0.0017   0.00   16.4
2018/02/21 08:14:30.000   4136503.6207     87779.9301   4838110.8835   1   7   0.0018   0.0008   0.0020  -0.0004  -0.0005   0.0016   0.00   18.1
2018/02/21 08:15:00.000   4136503.6202     87779.9303   4838110.8834   1   7   0.0017   0.0008   0.0020  -0.0004  -0.0005   0.0016   0.00   19.9
2018/02/21 08:15:30.000   4136503.6198     87779.9304   4838110.8835   1   7   0.0017   0.0008   0.0019  -0.0004  -0.0005   0.0016   0.00   21.0
2018/02/21 08:16:00.000   4136503.6194     87779.9305   4838110.8836   1   7   0.0017   0.0008   0.0019  -0.0004  -0.0005   0.0016   0.00   21.7
2018/02/21 08:16:30.000   4136503.6184     87779.9306   4838110.8831   1   7   0.0017   0.0008   0.0019  -0.0004  -0.0005   0.0016   0.00   22.2
2018/02/21 08:17:00.000   4136503.6175     87779.9309   4838110.8831   1   7   0.0017   0.0007   0.0019  -0.0004  -0.0005   0.0015   0.00   21.4
2018/02/21 08:17:30.000   4136503.6169     87779.9310   4838110.8829   1   7   0.0016   0.0007   0.0019  -0.0004  -0.0005   0.0015   0.00   21.1
2018/02/21 08:18:00.000   4136503.6164     87779.9309   4838110.8826   1   7   0.0016   0.0007   0.0018  -0.0004  -0.0005   0.0015   0.00   21.3
2018/02/21 08:18:30.000   4136503.6160     87779.9309   4838110.8825   1   7   0.0016   0.0007   0.0018  -0.0004  -0.0005   0.0015   0.00   21.3
2018/02/21 08:19:00.000   4136503.6160     87779.9308   4838110.8823   1   7   0.0016   0.0007   0.0018  -0.0004  -0.0005   0.0015   0.00   21.9
2018/02/21 08:19:30.000   4136503.6158     87779.9308   4838110.8823   1   7   0.0016   0.0007   0.0018  -0.0004  -0.0005   0.0015   0.00   22.0
2018/02/21 08:20:00.000   4136503.6156     87779.9309   4838110.8822   1   7   0.0016   0.0007   0.0018  -0.0004  -0.0005   0.0015   0.00   22.5
2018/02/21 08:20:30.000   4136503.6157     87779.9309   4838110.8822   1   7   0.0015   0.0007   0.0018  -0.0004  -0.0005   0.0015   0.00   23.5
2018/02/21 08:21:00.000   4136503.6159     87779.9310   4838110.8822   1   7   0.0015   0.0007   0.0018  -0.0004  -0.0005   0.0014   0.00   25.3
2018/02/21 08:21:30.000   4136503.6160     87779.9310   4838110.8824   1   7   0.0015   0.0007   0.0017  -0.0004  -0.0005   0.0014   0.00   26.0
2018/02/21 08:22:00.000   4136503.6159     87779.9310   4838110.8822   1   7   0.0015   0.0007   0.0017  -0.0004  -0.0004   0.0014   0.00   27.1
2018/02/21 08:22:30.000   4136503.6158     87779.9310   4838110.8820   1   7   0.0015   0.0007   0.0017  -0.0004  -0.0004   0.0014   0.00   27.6
2018/02/21 08:23:00.000   4136503.6156     87779.9311   4838110.8821   1   7   0.0015   0.0007   0.0017  -0.0004  -0.0004   0.0014   0.00   26.3
2018/02/21 08:23:30.000   4136503.6155     87779.9312   4838110.8820   1   7   0.0015   0.0007   0.0017  -0.0004  -0.0004   0.0014   0.00   26.1
2018/02/21 08:24:00.000   4136503.6155     87779.9312   4838110.8819   1   7   0.0015   0.0007   0.0017  -0.0004  -0.0004   0.0014   0.00   26.3
2018/02/21 08:24:30.000   4136503.6155     87779.9313   4838110.8818   1   7   0.0015   0.0006   0.0017  -0.0004  -0.0004   0.0014   0.00   26.2
2018/02/21 08:25:00.000   4136503.6155     87779.9313   4838110.8819   1   7   0.0014   0.0006   0.0017  -0.0004  -0.0004   0.0014   0.00   26.7
2018/02/21 08:25:30.000   4136503.6155     87779.9312   4838110.8820   1   7   0.0014   0.0006   0.0017  -0.0004  -0.0004   0.0014   0.00   27.7
2018/02/21 08:26:00.000   4136503.6156     87779.9312   4838110.8819   1   7   0.0014   0.0006   0.0017  -0.0004  -0.0004   0.0014   0.00   29.7
2018/02/21 08:26:30.000   4136503.6156     87779.9310   4838110.8819   1   7   0.0014   0.0006   0.0017  -0.0004  -0.0004   0.0013   0.00   31.9
2018/02/21 08:27:00.000   4136503.6155     87779.9310   4838110.8819   1   7   0.0014   0.0006   0.0017  -0.0004  -0.0004   0.0013   0.00   33.8
2018/02/21 08:27:30.000   4136503.6155     87779.9310   4838110.8821   1   7   0.0014   0.0006   0.0016  -0.0004  -0.0004   0.0013   0.00   33.9
2018/02/21 08:28:00.000   4136503.6154     87779.9309   4838110.8823   1   7   0.0014   0.0006   0.0016  -0.0004  -0.0004   0.0013   0.00   34.4
2018/02/21 08:28:30.000   4136503.6153     87779.9308   4838110.8827   1   7   0.0014   0.0006   0.0016  -0.0004  -0.0004   0.0013   0.00   34.0
2018/02/21 08:29:00.000   4136503.6152     87779.9308   4838110.8831   1   7   0.0014   0.0006   0.0016  -0.0004  -0.0004   0.0013   0.00   33.5
2018/02/21 08:29:30.000   4136503.6151     87779.9308   4838110.8834   1   7   0.0014   0.0006   0.0016  -0.0004  -0.0004   0.0013   0.00   33.0
2018/02/21 08:30:00.000   4136503.6149     87779.9307   4838110.8838   1   7   0.0014   0.0006   0.0016  -0.0004  -0.0004   0.0013   0.00   32.7
2018/02/21 08:30:30.000   4136503.6148     87779.9307   4838110.8840   1   7   0.0014   0.0006   0.0016  -0.0003  -0.0004   0.0013   0.00   33.1
2018/02/21 08:31:00.000   4136503.6146     87779.9307   4838110.8841   1   7   0.0014   0.0006   0.0016  -0.0003  -0.0004   0.0013   0.00   33.6
2018/02/21 08:31:30.000   4136503.6144     87779.9307   4838110.8842   1   7   0.0013   0.0006   0.0016  -0.0003  -0.0004   0.0013   0.00   34.4
2018/02/21 08:32:00.000   4136503.6143     87779.9306   4838110.8846   1   7   0.0013   0.0006   0.0016  -0.0003  -0.0004   0.0013   0.00   34.3
2018/02/21 08:32:30.000   4136503.6141     87779.9306   4838110.8851   1   7   0.0013   0.0006   0.0016  -0.0003  -0.0004   0.0013   0.00   34.3
2018/02/21 08:33:00.000   4136503.6141     87779.9306   4838110.8855   1   7   0.0013   0.0006   0.0016  -0.0003  -0.0004   0.0013   0.00   34.3
2018/02/21 08:33:30.000   4136503.6140     87779.9305   4838110.8859   1   7   0.0013   0.0006   0.0016  -0.0003  -0.0004   0.0013   0.00   34.3
2018/02/21 08:34:00.000   4136503.6140     87779.9304   4838110.8864   1   7   0.0013   0.0006   0.0016  -0.0003  -0.0004   0.0013   0.00   34.2
2018/02/21 08:34:30.000   4136503.6140     87779.9303   4838110.8870   1   7   0.0013   0.0006   0.0016  -0.0003  -0.0004   0.0013   0.00   34.0
2018/02/21 08:35:00.000   4136503.6139     87779.9302   4838110.8874   1   7   0.0013   0.0006   0.0016  -0.0003  -0.0004   0.0013   0.00   34.2
2018/02/21 08:35:30.000   4136503.6137     87779.9302   4838110.8878   1   7   0.0013   0.0006   0.0016  -0.0003  -0.0004   0.0013   0.00   33.9
2018/02/21 08:36:00.000   4136503.6136     87779.9301   4838110.8882   1   7   0.0013   0.0006   0.0016  -0.0003  -0.0004   0.0013   0.00   33.6
2018/02/21 08:36:30.000   4136503.6134     87779.9301   4838110.8886   1   7   0.0013   0.0006   0.0016  -0.0003  -0.0004   0.0013   0.00   32.9
2018/02/21 08:37:00.000   4136503.6133     87779.9301   4838110.8890   1   7   0.0013   0.0006   0.0016  -0.0003  -0.0004   0.0013   0.00   32.6
2018/02/21 08:37:30.000   4136503.6133     87779.9301   4838110.8892   1   7   0.0013   0.0006   0.0016  -0.0003  -0.0004   0.0012   0.00   32.8
2018/02/21 08:38:00.000   4136503.6133     87779.9301   4838110.8894   1   7   0.0013   0.0006   0.0016  -0.0003  -0.0004   0.0012   0.00   33.4
2018/02/21 08:38:30.000   4136503.6135     87779.9301   4838110.8897   1   7   0.0013   0.0006   0.0015  -0.0003  -0.0004   0.0012   0.00   33.6
2018/02/21 08:39:00.000   4136503.6136     87779.9302   4838110.8899   1   7   0.0013   0.0006   0.0015  -0.0003  -0.0004   0.0012   0.00   34.3
2018/02/21 08:39:30.000   4136503.6137     87779.9302   4838110.8900   1   7   0.0013   0.0006   0.0015  -0.0003  -0.0004   0.0012   0.00   35.2
2018/02/21 08:40:00.000   4136503.6139     87779.9302   4838110.8901   1   7   0.0013   0.0006   0.0015  -0.0003  -0.0004   0.0012   0.00   36.7
2018/02/21 08:40:30.000   4136503.6140     87779.9303   4838110.8901   1   7   0.0013   0.0006   0.0015  -0.0003  -0.0004   0.0012   0.00   38.3
2018/02/21 08:41:00.000   4136503.6142     87779.9302   4838110.8901   1   7   0.0013   0.0006   0.0015  -0.0003  -0.0004   0.0012   0.00   40.0
2018/02/21 08:41:30.000   4136503.6143     87779.9303   4838110.8900   1   7   0.0013   0.0005   0.0015  -0.0003  -0.0004   0.0012   0.00   42.1
2018/02/21 08:42:00.000   4136503.6145     87779.9303   4838110.8901   1   7   0.0013   0.0005   0.0015  -0.0003  -0.0004   0.0012   0.00   44.1
2018/02/21 08:42:30.000   4136503.6147     87779.9303   4838110.8901   1   7   0.0012   0.0005   0.0015  -0.0003  -0.0004   0.0012   0.00   46.9
2018/02/21 08:43:00.000   4136503.6150     87779.9303   4838110.8901   1   7   0.0012   0.0005   0.0015  -0.0003  -0.0004   0.0012   0.00   49.1
2018/02/21 08:43:30.000   4136503.6151     87779.9303   4838110.8901   1   7   0.0012   0.0005   0.0015  -0.0003  -0.0004   0.0012   0.00   52.2
2018/02/21 08:44:00.000   4136503.6154     87779.9303   4838110.8901   1   7   0.0012   0.0005   0.0015  -0.0003  -0.0004   0.0012   0.00   54.7
2018/02/21 08:44:30.000   4136503.6155     87779.9302   4838110.8900   1   7   0.0012   0.0005   0.0015  -0.0003  -0.0004   0.0012   0.00   56.6
2018/02/21 08:45:00.000   4136503.6158     87779.9302   4838110.8902   1   7   0.0012   0.0005   0.0015  -0.0003  -0.0004   0.0012   0.00   58.7
2018/02/21 08:45:30.000   4136503.6160     87779.9302   4838110.8902   1   7   0.0012   0.0005   0.0015  -0.0003  -0.0004   0.0012   0.00   60.6
2018/02/21 08:46:00.000   4136503.6162     87779.9301   4838110.8903   1   7   0.0012   0.0005   0.0015  -0.0003  -0.0004   0.0012   0.00   62.5
2018/02/21 08:46:30.000   4136503.6164     87779.9300   4838110.8904   1   7   0.0012   0.0005   0.0015  -0.0003  -0.0004   0.0012   0.00   64.0
2018/02/21 08:47:00.000   4136503.6166     87779.9300   4838110.8906   1   7   0.0012   0.0005   0.0015  -0.0003  -0.0004   0.0012   0.00   66.0
2018/02/21 08:47:30.000   4136503.6167     87779.9300   4838110.8907   1   7   0.0012   0.0005   0.0015  -0.0003  -0.0004   0.0012   0.00   66.5
2018/02/21 08:48:00.000   4136503.6121     87779.9317   4838110.8866   1   6   0.0020   0.0008   0.0020  -0.0010  -0.0010   0.0019   0.00   87.2
2018/02/21 08:48:30.000   4136503.6125     87779.9316   4838110.8869   1   6   0.0020   0.0008   0.0020  -0.0010  -0.0010   0.0019   0.00   88.4
2018/02/21 08:49:00.000   4136503.6128     87779.9315   4838110.8873   1   6   0.0020   0.0008   0.0020  -0.0010  -0.0010   0.0019   0.00   88.1
2018/02/21 08:49:30.000   4136503.6132     87779.9314   4838110.8876   1   6   0.0020   0.0008   0.0020  -0.0010  -0.0010   0.0019   0.00   88.2
2018/02/21 08:50:00.000   4136503.6135     87779.9314   4838110.8879   1   6   0.0020   0.0008   0.0020  -0.0010  -0.0010   0.0019   0.00   88.6
2018/02/21 08:50:30.000   4136503.6140     87779.9313   4838110.8884   1   6   0.0019   0.0008   0.0020  -0.0010  -0.0009   0.0019   0.00   88.4
2018/02/21 08:51:00.000   4136503.6144     87779.9312   4838110.8888   1   6   0.0019   0.0008   0.0020  -0.0010  -0.0009   0.0018   0.00   88.5
2018/02/21 08:51:30.000   4136503.6148     87779.9311   4838110.8891   1   6   0.0019   0.0008   0.0020  -0.0010  -0.0009   0.0018   0.00   88.1
2018/02/21 08:52:00.000   4136503.6150     87779.9310   4838110.8893   1   6   0.0019   0.0008   0.0020  -0.0009  -0.0009   0.0018   0.00   87.0
2018/02/21 08:52:30.000   4136503.6153     87779.9310   4838110.8897   1   6   0.0019   0.0008   0.0020  -0.0009  -0.0009   0.0018   0.00   84.0
2018/02/21 08:53:00.000   4136503.6159     87779.9309   4838110.8903   1   6   0.0019   0.0007   0.0019  -0.0009  -0.0009   0.0018   0.00   80.1
2018/02/21 08:53:30.000   4136503.6164     87779.9307   4838110.8907   1   6   0.0019   0.0007   0.0019  -0.0009  -0.0009   0.0018   0.00   78.4
2018/02/21 08:54:00.000   4136503.6168     87779.9306   4838110.8911   1   6   0.0019   0.0007   0.0019  -0.0009  -0.0009   0.0018   0.00   77.5
2018/02/21 08:54:30.000   4136503.6170     87779.9306   4838110.8913   1   6   0.0019   0.0007   0.0019  -0.0009  -0.0009   0.0018   0.00   76.3
2018/02/21 08:55:00.000   4136503.6175     87779.9305   4838110.8916   1   6   0.0019   0.0007   0.0019  -0.0009  -0.0009   0.0018   0.00   73.0
2018/02/21 08:55:30.000   4136503.6179     87779.9304   4838110.8919   1   6   0.0018   0.0007   0.0019  -0.0009  -0.0009   0.0017   0.00   71.0
2018/02/21 08:56:00.000   4136503.6188     87779.9301   4838110.8926   1   6   0.0018   0.0007   0.0019  -0.0009  -0.0009   0.0017   0.00   68.4
2018/02/21 08:56:30.000   4136503.6195     87779.9299   4838110.8931   1   6   0.0018   0.0007   0.0019  -0.0009  -0.0009   0.0017   0.00   68.0
2018/02/21 08:57:00.000   4136503.6203     87779.9295   4838110.8936   1   6   0.0018   0.0007   0.0019  -0.0009  -0.0009   0.0017   0.00   67.2
2018/02/21 08:57:30.000   4136503.6210     87779.9292   4838110.8942   1   6   0.0018   0.0007   0.0018  -0.0009  -0.0008   0.0017   0.00   66.4
2018/02/21 08:58:00.000   4136503.6218     87779.9289   4838110.8946   1   6   0.0018   0.0007   0.0018  -0.0009  -0.0008   0.0017   0.00   65.5
2018/02/21 08:58:30.000   4136503.6224     87779.9287   4838110.8949   1   6   0.0018   0.0007   0.0018  -0.0008  -0.0008   0.0017   0.00   65.4
2018/02/21 08:59:00.000   4136503.6230     87779.9285   4838110.8951   1   6   0.0018   0.0007   0.0018  -0.0008  -0.0008   0.0017   0.00   64.7
2018/02/21 08:59:30.000   4136503.6237     87779.9283   4838110.8954   1   6   0.0018   0.0007   0.0018  -0.0008  -0.0008   0.0016   0.00   63.5
2018/02/21 09:00:00.000   4136503.6243     87779.9281   4838110.8957   1   6   0.0017   0.0007   0.0018  -0.0008  -0.0008   0.0016   0.00   61.9
2018/02/21 09:00:30.000   4136503.6251     87779.9278   4838110.8962   1   6   0.0017   0.0007   0.0018  -0.0008  -0.0008   0.0016   0.00   60.3
2018/02/21 09:01:00.000   4136503.6258     87779.9276   4838110.8967   1   6   0.0017   0.0007   0.0018  -0.0008  -0.0008   0.0016   0.00   57.7
2018/02/21 09:01:30.000   4136503.6266     87779.9274   4838110.8971   1   6   0.0017   0.0007   0.0018  -0.0008  -0.0008   0.0016   0.00   55.9
2018/02/21 09:02:00.000   4136503.6273     87779.9273   4838110.8974   1   6   0.0017   0.0007   0.0017  -0.0008  -0.0008   0.0016   0.00   54.0
2018/02/21 09:02:30.000   4136503.6280     87779.9271   4838110.8978   1   6   0.0017   0.0007   0.0017  -0.0008  -0.0008   0.0016   0.00   51.3
2018/02/21 09:03:00.000   4136503.6288     87779.9270   4838110.8982   1   6   0.0017   0.0007   0.0017  -0.0008  -0.0008   0.0016   0.00   48.4
2018/02/21 09:03:30.000   4136503.6297     87779.9268   4838110.8985   1   6   0.0017   0.0007   0.0017  -0.0008  -0.0008   0.0015   0.00   45.5
2018/02/21 09:04:00.000   4136503.6305     87779.9266   4838110.8988   1   6   0.0017   0.0007   0.0017  -0.0008  -0.0007   0.0015   0.00   43.2
2018/02/21 09:04:30.000   4136503.6312     87779.9264   4838110.8991   1   6   0.0016   0.0007   0.0017  -0.0007  -0.0007   0.0015   0.00   41.3
2018/02/21 09:05:00.000   4136503.6319     87779.9262   4838110.8994   1   6   0.0016   0.0007   0.0017  -0.0007  -0.0007   0.0015   0.00   39.0
2018/02/21 09:05:30.000   4136503.6328     87779.9261   4838110.8998   1   6   0.0016   0.0007   0.0017  -0.0007  -0.0007   0.0015   0.00   36.6
2018/02/21 09:06:00.000   4136503.6337     87779.9260   4838110.9002   1   6   0.0016   0.0007   0.0016  -0.0007  -0.0007   0.0015   0.00   34.5
2018/02/21 09:06:30.000   4136503.6345     87779.9259   4838110.9006   1   6   0.0016   0.0007   0.0016  -0.0007  -0.0007   0.0015   0.00   32.4
2018/02/21 09:07:00.000   4136503.6353     87779.9258   4838110.9008   1   6   0.0016   0.0006   0.0016  -0.0007  -0.0007   0.0015   0.00   30.4
2018/02/21 09:07:30.000   4136503.6359     87779.9258   4838110.9010   1   6   0.0016   0.0006   0.0016  -0.0007  -0.0007   0.0015   0.00   28.8
2018/02/21 09:08:00.000   4136503.6364     87779.9258   4838110.9011   1   6   0.0016   0.0006   0.0016  -0.0007  -0.0007   0.0014   0.00   27.7
2018/02/21 09:08:30.000   4136503.6369     87779.9258   4838110.9012   1   6   0.0016   0.0006   0.0016  -0.0007  -0.0007   0.0014   0.00   26.9
2018/02/21 09:09:00.000   4136503.6249     87779.9070   4838110.9020   2   7   0.0035   0.0051   0.0019   0.0025   0.0011   0.0016   0.00    1.2
2018/02/21 09:09:30.000   4136503.6244     87779.9059   4838110.9016   2   7   0.0034   0.0051   0.0019   0.0025   0.0011   0.0015   0.00    1.4
2018/02/21 09:10:00.000   4136503.6237     87779.9050   4838110.9012   2   7   0.0034   0.0050   0.0019   0.0024   0.0011   0.0015   0.00    1.6
2018/02/21 09:10:30.000   4136503.6234     87779.9044   4838110.9007   2   7   0.0034   0.0050   0.0019   0.0024   0.0011   0.0015   0.00    1.8
2018/02/21 09:11:00.000   4136503.6231     87779.9039   4838110.9004   2   7   0.0033   0.0049   0.0018   0.0023   0.0011   0.0015   0.00    2.0
2018/02/21 09:11:30.000   4136503.6225     87779.9036   4838110.9002   2   7   0.0033   0.0049   0.0018   0.0023   0.0011   0.0015   0.00    2.2
2018/02/21 09:12:00.000   4136503.6223     87779.9041   4838110.9002   2   7   0.0033   0.0049   0.0018   0.0023   0.0011   0.0015   0.00    2.3
2018/02/21 09:12:30.000   4136503.6221     87779.9039   4838110.8999   2   7   0.0032   0.0048   0.0018   0.0022   0.0010   0.0015   0.00    2.5
2018/02/21 09:13:00.000   4136503.6220     87779.9040   4838110.8998   2   7   0.0032   0.0048   0.0018   0.0022   0.0010   0.0014   0.00    2.7
2018/02/21 09:13:30.000   4136503.6217     87779.9042   4838110.8997   2   7   0.0032   0.0048   0.0018   0.0022   0.0010   0.0014   0.00    2.8
2018/02/21 09:14:00.000   4136503.6394     87779.9264   4838110.9017   1   7   0.0015   0.0006   0.0014  -0.0006  -0.0006   0.0013   0.00    3.0
2018/02/21 09:14:30.000   4136503.6396     87779.9265   4838110.9019   1   7   0.0014   0.0006   0.0014  -0.0006  -0.0006   0.0013   0.00    3.2
2018/02/21 09:15:00.000   4136503.6396     87779.9267   4838110.9021   1   7   0.0014   0.0006   0.0014  -0.0006  -0.0006   0.0013   0.00    3.5
2018/02/21 09:15:30.000   4136503.6396     87779.9269   4838110.9023   1   7   0.0014   0.0006   0.0014  -0.0006  -0.0006   0.0012   0.00    3.7
2018/02/21 09:16:00.000   4136503.6396     87779.9273   4838110.9027   1   7   0.0014   0.0006   0.0014  -0.0006  -0.0006   0.0012   0.00    3.9
2018/02/21 09:16:30.000   4136503.6395     87779.9276   4838110.9028   1   7   0.0014   0.0006   0.0014  -0.0006  -0.0006   0.0012   0.00    4.1
2018/02/21 09:17:00.000   4136503.6394     87779.9278   4838110.9029   1   7   0.0014   0.0006   0.0014  -0.0006  -0.0006   0.0012   0.00    4.4
2018/02/21 09:17:30.000   4136503.6394     87779.9280   4838110.9031   1   7   0.0014   0.0006   0.0014  -0.0006  -0.0006   0.0012   0.00    4.7
2018/02/21 09:18:00.000   4136503.6393     87779.9282   4838110.9034   1   7   0.0014   0.0006   0.0013  -0.0006  -0.0006   0.0012   0.00    4.7
2018/02/21 09:18:30.000   4136503.6391     87779.9283   4838110.9035   1   7   0.0014   0.0006   0.0013  -0.0006  -0.0006   0.0012   0.00    4.8
2018/02/21 09:19:00.000   4136503.6390     87779.9284   4838110.9036   1   7   0.0014   0.0006   0.0013  -0.0005  -0.0006   0.0012   0.00    5.0
2018/02/21 09:19:30.000   4136503.6388     87779.9284   4838110.9036   1   7   0.0014   0.0006   0.0013  -0.0005  -0.0005   0.0012   0.00    5.2
2018/02/21 09:20:00.000   4136503.6386     87779.9284   4838110.9034   1   7   0.0014   0.0006   0.0013  -0.0005  -0.0005   0.0011   0.00    5.3
2018/02/21 09:20:30.000   4136503.6384     87779.9284   4838110.9033   1   7   0.0014   0.0006   0.0013  -0.0005  -0.0005   0.0011   0.00    5.6
2018/02/21 09:21:00.000   4136503.6384     87779.9283   4838110.9032   1   7   0.0013   0.0006   0.0013  -0.0005  -0.0005   0.0011   0.00    5.7
2018/02/21 09:21:30.000   4136503.6381     87779.9283   4838110.9030   1   7   0.0013   0.0006   0.0013  -0.0005  -0.0005   0.0011   0.00    5.9
2018/02/21 09:22:00.000   4136503.6377     87779.9281   4838110.8982   1   6   0.0013   0.0006   0.0014  -0.0005  -0.0005   0.0011   0.00    6.8
2018/02/21 09:22:30.000   4136503.6376     87779.9282   4838110.8980   1   6   0.0013   0.0006   0.0014  -0.0005  -0.0005   0.0011   0.00    7.0
2018/02/21 09:23:00.000   4136503.6373     87779.9282   4838110.8977   1   6   0.0013   0.0006   0.0014  -0.0005  -0.0005   0.0011   0.00    7.3
2018/02/21 09:23:30.000   4136503.6371     87779.9282   4838110.8975   1   6   0.0013   0.0006   0.0014  -0.0005  -0.0005   0.0011   0.00    7.6
2018/02/21 09:24:00.000   4136503.6370     87779.9282   4838110.8974   1   6   0.0013   0.0006   0.0014  -0.0005  -0.0005   0.0011   0.00    7.8
2018/02/21 09:24:30.000   4136503.6368     87779.9282   4838110.8973   1   6   0.0013   0.0006   0.0014  -0.0005  -0.0005   0.0011   0.00    8.2
2018/02/21 09:25:00.000   4136503.6366     87779.9282   4838110.8970   1   6   0.0013   0.0006   0.0013  -0.0005  -0.0005   0.0011   0.00    8.6
2018/02/21 09:25:30.000   4136503.6364     87779.9282   4838110.8969   1   6   0.0013   0.0006   0.0013  -0.0005  -0.0005   0.0010   0.00    9.0
2018/02/21 09:26:00.000   4136503.6362     87779.9283   4838110.8967   1   6   0.0013   0.0006   0.0013  -0.0005  -0.0005   0.0010   0.00    9.5
2018/02/21 09:26:30.000   4136503.6361     87779.9283   4838110.8967   1   6   0.0013   0.0006   0.0013  -0.0005  -0.0005   0.0010   0.00    9.9
2018/02/21 09:27:00.000   4136503.6358     87779.9284   4838110.8966   1   6   0.0013   0.0006   0.0013  -0.0005  -0.0005   0.0010   0.00   10.2
2018/02/21 09:27:30.000   4136503.6355     87779.9285   4838110.8964   1   6   0.0013   0.0006   0.0013  -0.0005  -0.0005   0.0010   0.00   10.3
2018/02/21 09:28:00.000   4136503.6353     87779.9285   4838110.8963   1   6   0.0013   0.0006   0.0013  -0.0005  -0.0005   0.0010   0.00   10.7
2018/02/21 09:28:30.000   4136503.6349     87779.9286   4838110.8961   1   6   0.0013   0.0006   0.0013  -0.0005  -0.0005   0.0010   0.00   10.9
2018/02/21 09:29:00.000   4136503.6346     87779.9287   4838110.8960   1   6   0.0013   0.0006   0.0013  -0.0005  -0.0005   0.0010   0.00   11.0
2018/02/21 09:29:30.000   4136503.6343     87779.9287   4838110.8959   1   6   0.0013   0.0006   0.0013  -0.0004  -0.0005   0.0010   0.00   11.2
2018/02/21 09:30:00.000   4136503.6339     87779.9287   4838110.8956   1   6   0.0013   0.0006   0.0013  -0.0004  -0.0005   0.0010   0.00   11.6
2018/02/21 09:30:30.000   4136503.6336     87779.9287   4838110.8953   1   6   0.0013   0.0006   0.0013  -0.0004  -0.0005   0.0010   0.00   12.0
2018/02/21 09:31:00.000   4136503.6332     87779.9286   4838110.8949   1   6   0.0012   0.0006   0.0012  -0.0004  -0.0005   0.0010   0.00   12.6
2018/02/21 09:31:30.000   4136503.6329     87779.9286   4838110.8946   1   6   0.0012   0.0006   0.0012  -0.0004  -0.0005   0.0009   0.00   13.0
2018/02/21 09:32:00.000   4136503.6327     87779.9286   4838110.8943   1   6   0.0012   0.0006   0.0012  -0.0004  -0.0005   0.0009   0.00   13.5
2018/02/21 09:32:30.000   4136503.6324     87779.9286   4838110.8939   1   6   0.0012   0.0006   0.0012  -0.0004  -0.0005   0.0009   0.00   14.1
2018/02/21 09:33:00.000   4136503.6322     87779.9287   4838110.8936   1   6   0.0012   0.0006   0.0012  -0.0004  -0.0005   0.0009   0.00   14.5
2018/02/21 09:33:30.000   4136503.6320     87779.9287   4838110.8936   1   6   0.0012   0.0006   0.0012  -0.0004  -0.0004   0.0009   0.00   15.1
2018/02/21 09:34:00.000   4136503.6319     87779.9288   4838110.8935   1   6   0.0012   0.0005   0.0012  -0.0004  -0.0004   0.0009   0.00   15.5
2018/02/21 09:34:30.000   4136503.6316     87779.9289   4838110.8933   1   6   0.0012   0.0005   0.0012  -0.0004  -0.0004   0.0009   0.00   16.0
2018/02/21 09:35:00.000   4136503.6314     87779.9289   4838110.8932   1   6   0.0012   0.0005   0.0012  -0.0004  -0.0004   0.0009   0.00   16.3
2018/02/21 09:35:30.000   4136503.6311     87779.9291   4838110.8930   1   6   0.0012   0.0005   0.0012  -0.0004  -0.0004   0.0009   0.00   16.9
2018/02/21 09:36:00.000   4136503.6309     87779.9292   4838110.8930   1   6   0.0012   0.0005   0.0012  -0.0004  -0.0004   0.0009   0.00   17.6
2018/02/21 09:36:30.000   4136503.6308     87779.9292   4838110.8930   1   6   0.0012   0.0005   0.0012  -0.0004  -0.0004   0.0009   0.00   18.2
2018/02/21 09:37:00.000   4136503.6305     87779.9292   4838110.8929   1   6   0.0012   0.0005   0.0012  -0.0004  -0.0004   0.0009   0.00   19.1
2018/02/21 09:37:30.000   4136503.6303     87779.9294   4838110.8928   1   6   0.0012   0.0005   0.0012  -0.0004  -0.0004   0.0009   0.00   20.1
2018/02/21 09:38:00.000   4136503.6302     87779.9294   4838110.8928   1   6   0.0012   0.0005   0.0012  -0.0004  -0.0004   0.0008   0.00   20.9
2018/02/21 09:38:30.000   4136503.6301     87779.9295   4838110.8929   1   6   0.0012   0.0005   0.0011  -0.0004  -0.0004   0.0008   0.00   21.4
2018/02/21 09:39:00.000   4136503.6300     87779.9295   4838110.8930   1   6   0.0012   0.0005   0.0011  -0.0004  -0.0004   0.0008   0.00   21.7
2018/02/21 09:39:30.000   4136503.6299     87779.9296   4838110.8932   1   6   0.0012   0.0005   0.0011  -0.0004  -0.0004   0.0008   0.00   21.8
2018/02/21 09:40:00.000   4136503.6298     87779.9297   4838110.8933   1   6   0.0012   0.0005   0.0011  -0.0004  -0.0004   0.0008   0.00   22.2
2018/02/21 09:40:30.000   4136503.6297     87779.9297   4838110.8933   1   6   0.0012   0.0005   0.0011  -0.0003  -0.0004   0.0008   0.00   22.7
2018/02/21 09:41:00.000   4136503.6296     87779.9297   4838110.8934   1   6   0.0012   0.0005   0.0011  -0.0003  -0.0004   0.0008   0.00   23.3
2018/02/21 09:41:30.000   4136503.6295     87779.9297   4838110.8933   1   6   0.0012   0.0005   0.0011  -0.0003  -0.0004   0.0008   0.00   23.9
2018/02/21 09:42:00.000   4136503.6294     87779.9297   4838110.8932   1   6   0.0012   0.0005   0.0011  -0.0003  -0.0004   0.0008   0.00   24.5
2018/02/21 09:42:30.000   4136503.6292     87779.9297   4838110.8931   1   6   0.0012   0.0005   0.0011  -0.0003  -0.0004   0.0008   0.00   25.0
2018/02/21 09:43:00.000   4136503.6291     87779.9296   4838110.8931   1   6   0.0012   0.0005   0.0011  -0.0003  -0.0004   0.0008   0.00   25.7
2018/02/21 09:43:30.000   4136503.6290     87779.9295   4838110.8930   1   6   0.0012   0.0005   0.0011  -0.0003  -0.0004   0.0008   0.00   26.1
2018/02/21 09:44:00.000   4136503.6288     87779.9294   4838110.8928   1   6   0.0012   0.0005   0.0011  -0.0003  -0.0004   0.0008   0.00   26.6
2018/02/21 09:44:30.000   4136503.6287     87779.9293   4838110.8927   1   6   0.0012   0.0005   0.0011  -0.0003  -0.0004   0.0008   0.00   27.4
2018/02/21 09:45:00.000   4136503.6285     87779.9292   4838110.8925   1   6   0.0012   0.0005   0.0011  -0.0003  -0.0004   0.0008   0.00   28.1
2018/02/21 09:45:30.000   4136503.6285     87779.9290   4838110.8924   1   6   0.0012   0.0005   0.0011  -0.0003  -0.0004   0.0008   0.00   29.2
2018/02/21 09:46:00.000   4136503.6284     87779.9289   4838110.8924   1   6   0.0012   0.0005   0.0011  -0.0003  -0.0004   0.0007   0.00   29.8
2018/02/21 09:46:30.000   4136503.6282     87779.9289   4838110.8922   1   6   0.0012   0.0005   0.0011  -0.0003  -0.0004   0.0007   0.00   30.5
2018/02/21 09:47:00.000   4136503.6280     87779.9288   4838110.8920   1   6   0.0012   0.0005   0.0011  -0.0003  -0.0004   0.0007   0.00   31.3
2018/02/21 09:47:30.000   4136503.6279     87779.9288   4838110.8919   1   6   0.0012   0.0005   0.0011  -0.0003  -0.0004   0.0007   0.00   31.8
2018/02/21 09:48:00.000   4136503.6278     87779.9286   4838110.8919   1   6   0.0012   0.0005   0.0010  -0.0003  -0.0004   0.0007   0.00   32.5
2018/02/21 09:48:30.000   4136503.6277     87779.9286   4838110.8917   1   6   0.0012   0.0005   0.0010  -0.0003  -0.0004   0.0007   0.00   33.5
2018/02/21 09:49:00.000   4136503.6275     87779.9286   4838110.8915   1   6   0.0012   0.0005   0.0010  -0.0003  -0.0004   0.0007   0.00   34.6
2018/02/21 09:49:30.000   4136503.6274     87779.9286   4838110.8914   1   6   0.0012   0.0005   0.0010  -0.0003  -0.0004   0.0007   0.00   36.0
2018/02/21 09:50:00.000   4136503.6273     87779.9286   4838110.8913   1   6   0.0012   0.0005   0.0010  -0.0003  -0.0004   0.0007   0.00   37.5
2018/02/21 09:50:30.000   4136503.6193     87779.9245   4838110.8924   2   7   0.0019   0.0036   0.0013   0.0008   0.0005   0.0010   0.00    1.3
2018/02/21 09:51:00.000   4136503.6194     87779.9242   4838110.8922   2   7   0.0019   0.0036   0.0013   0.0008   0.0005   0.0010   0.00    1.7
2018/02/21 09:51:30.000   4136503.6196     87779.9241   4838110.8921   2   7   0.0019   0.0036   0.0013   0.0008   0.0005   0.0010   0.00    2.0
2018/02/21 09:52:00.000   4136503.6196     87779.9239   4838110.8918   2   7   0.0019   0.0036   0.0013   0.0008   0.0005   0.0010   0.00    2.6
2018/02/21 09:52:30.000   4136503.6271     87779.9283   4838110.8909   1   7   0.0012   0.0005   0.0010  -0.0002  -0.0004   0.0007   0.00    3.1
2018/02/21 09:53:00.000   4136503.6271     87779.9283   4838110.8910   1   7   0.0012   0.0005   0.0010  -0.0002  -0.0004   0.0007   0.00    3.7
2018/02/21 09:53:30.000   4136503.6271     87779.9282   4838110.8909   1   7   0.0012   0.0005   0.0010  -0.0002  -0.0004   0.0007   0.00    4.2
2018/02/21 09:54:00.000   4136503.6271     87779.9282   4838110.8909   1   7   0.0012   0.0005   0.0010  -0.0002  -0.0004   0.0007   0.00    4.9
2018/02/21 09:54:30.000   4136503.6271     87779.9281   4838110.8910   1   7   0.0012   0.0005   0.0010  -0.0002  -0.0004   0.0007   0.00    5.6
2018/02/21 09:55:00.000   4136503.6272     87779.9280   4838110.8911   1   7   0.0012   0.0005   0.0010  -0.0002  -0.0004   0.0007   0.00    6.3
2018/02/21 09:55:30.000   4136503.6271     87779.9279   4838110.8911   1   7   0.0012   0.0005   0.0010  -0.0002  -0.0004   0.0007   0.00    7.0
2018/02/21 09:56:00.000   4136503.6271     87779.9278   4838110.8912   1   7   0.0012   0.0005   0.0010  -0.0002  -0.0003   0.0006   0.00    7.8
2018/02/21 09:56:30.000   4136503.6270     87779.9277   4838110.8912   1   7   0.0012   0.0005   0.0010  -0.0002  -0.0003   0.0006   0.00    8.5
2018/02/21 09:57:00.000   4136503.6271     87779.9276   4838110.8913   1   7   0.0012   0.0005   0.0009  -0.0002  -0.0003   0.0006   0.00    9.2
2018/02/21 09:57:30.000   4136503.6271     87779.9274   4838110.8914   1   7   0.0012   0.0005   0.0009  -0.0002  -0.0003   0.0006   0.00   10.0
2018/02/21 09:58:00.000   4136503.6270     87779.9273   4838110.8915   1   7   0.0012   0.0005   0.0009  -0.0002  -0.0003   0.0006   0.00   10.9
2018/02/21 09:58:30.000   4136503.6270     87779.9272   4838110.8916   1   7   0.0012   0.0005   0.0009  -0.0002  -0.0003   0.0006   0.00   11.7
2018/02/21 09:59:00.000   4136503.6270     87779.9270   4838110.8916   1   7   0.0012   0.0005   0.0009  -0.0001  -0.0003   0.0006   0.00   12.7
2018/02/21 09:59:30.000   4136503.6269     87779.9268   4838110.8916   1   7   0.0012   0.0005   0.0009  -0.0001  -0.0003   0.0006   0.00   13.6
2018/02/21 10:00:00.000   4136503.6268     87779.9266   4838110.8917   1   7   0.0012   0.0005   0.0009  -0.0001  -0.0003   0.0006   0.00   14.7
2018/02/21 10:00:30.000   4136503.6240     87779.9236   4838110.8912   2   8   0.0017   0.0035   0.0012   0.0006   0.0004   0.0009   0.00    1.5
2018/02/21 10:01:00.000   4136503.6242     87779.9236   4838110.8911   2   8   0.0017   0.0035   0.0012   0.0006   0.0004   0.0009   0.00    2.1
2018/02/21 10:01:30.000   4136503.6245     87779.9236   4838110.8911   2   8   0.0017   0.0035   0.0012   0.0006   0.0004   0.0009   0.00    2.7
2018/02/21 10:02:00.000   4136503.6269     87779.9261   4838110.8922   1   8   0.0011   0.0005   0.0009  -0.0001  -0.0003   0.0006   0.00    3.3
2018/02/21 10:02:30.000   4136503.6269     87779.9259   4838110.8923   1   8   0.0011   0.0005   0.0009  -0.0001  -0.0003   0.0006   0.00    3.9
2018/02/21 10:03:00.000   4136503.6268     87779.9258   4838110.8923   1   8   0.0011   0.0005   0.0009  -0.0001  -0.0003   0.0006   0.00    4.6
2018/02/21 10:03:30.000   4136503.6267     87779.9257   4838110.8923   1   8   0.0011   0.0005   0.0009  -0.0001  -0.0003   0.0006   0.00    5.3
2018/02/21 10:04:00.000   4136503.6266     87779.9255   4838110.8924   1   8   0.0011   0.0005   0.0009  -0.0001  -0.0003   0.0006   0.00    6.0
2018/02/21 10:04:30.000   4136503.6266     87779.9254   4838110.8926   1   8   0.0011   0.0005   0.0009  -0.0001  -0.0003   0.0006   0.00    6.7
2018/02/21 10:05:00.000   4136503.6265     87779.9253   4838110.8927   1   8   0.0011   0.0005   0.0009  -0.0001  -0.0003   0.0006   0.00    7.3
2018/02/21 10:05:30.000   4136503.6264     87779.9252   4838110.8928   1   8   0.0011   0.0005   0.0009  -0.0001  -0.0003   0.0006   0.00    8.1
2018/02/21 10:06:00.000   4136503.6263     87779.9251   4838110.8931   1   8   0.0011   0.0005   0.0009  -0.0001  -0.0003   0.0006   0.00    9.0
2018/02/21 10:06:30.000   4136503.6263     87779.9249   4838110.8933   1   8   0.0011   0.0005   0.0009  -0.0001  -0.0003   0.0006   0.00    9.5
2018/02/21 10:07:00.000   4136503.6265     87779.9248   4838110.8936   1   8   0.0011   0.0005   0.0009  -0.0001  -0.0003   0.0006   0.00   10.0
2018/02/21 10:07:30.000   4136503.6265     87779.9247   4838110.8937   1   8   0.0011   0.0005   0.0009  -0.0001  -0.0003   0.0006   0.00   10.8
2018/02/21 10:08:00.000   4136503.6265     87779.9246   4838110.8939   1   8   0.0011   0.0005   0.0009  -0.0001  -0.0003   0.0006   0.00   11.5
2018/02/21 10:08:30.000   4136503.6265     87779.9244   4838110.8941   1   8   0.0011   0.0005   0.0009  -0.0001  -0.0003   0.0006   0.00   12.0
2018/02/21 10:09:00.000   4136503.6265     87779.9243   4838110.8943   1   8   0.0011   0.0005   0.0009  -0.0001  -0.0003   0.0006   0.00   12.7
2018/02/21 10:09:30.000   4136503.6264     87779.9243   4838110.8945   1   8   0.0011   0.0005   0.0008  -0.0001  -0.0003   0.0006   0.00   13.3
2018/02/21 10:10:00.000   4136503.6263     87779.9243   4838110.8946   1   8   0.0011   0.0005   0.0008  -0.0001  -0.0003   0.0006   0.00   13.8
2018/02/21 10:10:30.000   4136503.6264     87779.9242   4838110.8947   1   8   0.0011   0.0005   0.0008  -0.0001  -0.0003   0.0006   0.00   14.3
2018/02/21 10:11:00.000   4136503.6273     87779.9226   4838110.8925   1   7   0.0011   0.0005   0.0009  -0.0002  -0.0001   0.0005   0.00   22.3
2018/02/21 10:11:30.000   4136503.6272     87779.9225   4838110.8927   1   7   0.0011   0.0005   0.0009  -0.0002  -0.0001   0.0005   0.00   22.0
2018/02/21 10:12:00.000   4136503.6272     87779.9225   4838110.8929   1   7   0.0011   0.0005   0.0009  -0.0002  -0.0001   0.0005   0.00   21.7
2018/02/21 10:12:30.000   4136503.6272     87779.9224   4838110.8931   1   7   0.0011   0.0005   0.0009  -0.0002  -0.0001   0.0005   0.00   21.6
2018/02/21 10:13:00.000   4136503.6273     87779.9224   4838110.8934   1   7   0.0011   0.0005   0.0009  -0.0002  -0.0001   0.0005   0.00   21.5
2018/02/21 10:13:30.000   4136503.6272     87779.9223   4838110.8936   1   7   0.0011   0.0005   0.0009  -0.0002  -0.0001   0.0005   0.00   21.0
2018/02/21 10:14:00.000   4136503.6273     87779.9222   4838110.8939   1   7   0.0010   0.0005   0.0009  -0.0002  -0.0001   0.0005   0.00   20.8
2018/02/21 10:14:30.000   4136503.6273     87779.9221   4838110.8942   1   7   0.0010   0.0005   0.0009  -0.0002  -0.0001   0.0005   0.00   20.7
2018/02/21 10:15:00.000   4136503.6272     87779.9221   4838110.8945   1   7   0.0010   0.0005   0.0009  -0.0002  -0.0000   0.0005   0.00   20.4
2018/02/21 10:15:30.000   4136503.6272     87779.9220   4838110.8946   1   7   0.0010   0.0005   0.0009  -0.0002  -0.0000   0.0005   0.00   20.3
2018/02/21 10:16:00.000   4136503.6271     87779.9220   4838110.8948   1   7   0.0010   0.0005   0.0009  -0.0002   0.0000   0.0005   0.00   20.4
2018/02/21 10:16:30.000   4136503.6271     87779.9219   4838110.8950   1   7   0.0010   0.0005   0.0009  -0.0002   0.0000   0.0005   0.00   20.6
2018/02/21 10:17:00.000   4136503.6271     87779.9219   4838110.8951   1   7   0.0010   0.0005   0.0009  -0.0002   0.0000   0.0005   0.00   20.9
2018/02/21 10:17:30.000   4136503.6271     87779.9219   4838110.8952   1   7   0.0010   0.0005   0.0009  -0.0002   0.0001   0.0005   0.00   21.6
2018/02/21 10:18:00.000   4136503.6300     87779.9199   4838110.8965   1   6   0.0011   0.0006   0.0009  -0.0004  -0.0003   0.0006   0.00   27.2
2018/02/21 10:18:30.000   4136503.6298     87779.9200   4838110.8966   1   6   0.0011   0.0006   0.0009  -0.0004  -0.0003   0.0006   0.00   27.4
2018/02/21 10:19:00.000   4136503.6297     87779.9199   4838110.8967   1   6   0.0011   0.0006   0.0009  -0.0004  -0.0003   0.0006   0.00   27.7
2018/02/21 10:19:30.000   4136503.6296     87779.9198   4838110.8968   1   6   0.0011   0.0006   0.0009  -0.0004  -0.0003   0.0006   0.00   28.2
2018/02/21 10:20:00.000   4136503.6295     87779.9198   4838110.8969   1   6   0.0011   0.0006   0.0009  -0.0004  -0.0002   0.0006   0.00   28.4
2018/02/21 10:20:30.000   4136503.6295     87779.9197   4838110.8969   1   6   0.0011   0.0006   0.0009  -0.0004  -0.0002   0.0006   0.00   29.3
2018/02/21 10:21:00.000   4136503.6294     87779.9196   4838110.8969   1   6   0.0011   0.0006   0.0009  -0.0004  -0.0002   0.0006   0.00   29.7
2018/02/21 10:21:30.000   4136503.6294     87779.9196   4838110.8970   1   6   0.0011   0.0006   0.0009  -0.0004  -0.0002   0.0006   0.00   29.9
2018/02/21 10:22:00.000   4136503.6294     87779.9195   4838110.8971   1   6   0.0011   0.0006   0.0009  -0.0004  -0.0002   0.0006   0.00   30.3
2018/02/21 10:22:30.000   4136503.6295     87779.9193   4838110.8972   1   6   0.0011   0.0006   0.0009  -0.0004  -0.0002   0.0006   0.00   30.3
2018/02/21 10:23:00.000   4136503.6295     87779.9192   4838110.8972   1   6   0.0011   0.0006   0.0009  -0.0004  -0.0002   0.0006   0.00   31.1
2018/02/21 10:23:30.000   4136503.6295     87779.9192   4838110.8972   1   6   0.0011   0.0006   0.0009  -0.0004  -0.0002   0.0006   0.00   31.3
2018/02/21 10:24:00.000   4136503.6296     87779.9191   4838110.8973   1   6   0.0011   0.0006   0.0009  -0.0004  -0.0002   0.0006   0.00   31.8
2018/02/21 10:24:30.000   4136503.6297     87779.9190   4838110.8973   1   6   0.0011   0.0006   0.0009  -0.0004  -0.0002   0.0006   0.00   32.6
2018/02/21 10:25:00.000   4136503.6296     87779.9190   4838110.8974   1   6   0.0010   0.0006   0.0009  -0.0004  -0.0002   0.0006   0.00   32.7
2018/02/21 10:25:30.000   4136503.6296     87779.9189   4838110.8974   1   6   0.0010   0.0006   0.0009  -0.0004  -0.0002   0.0006   0.00   33.5
2018/02/21 10:26:00.000   4136503.6297     87779.9187   4838110.8975   1   6   0.0010   0.0006   0.0009  -0.0004  -0.0002   0.0006   0.00   33.3
2018/02/21 10:26:30.000   4136503.6296     87779.9186   4838110.8976   1   6   0.0010   0.0006   0.0009  -0.0004  -0.0002   0.0006   0.00   33.3
2018/02/21 10:27:00.000   4136503.6294     87779.9185   4838110.8977   1   6   0.0010   0.0006   0.0009  -0.0004  -0.0002   0.0006   0.00   33.0
2018/02/21 10:27:30.000   4136503.6294     87779.9185   4838110.8978   1   6   0.0010   0.0006   0.0009  -0.0004  -0.0002   0.0006   0.00   32.8
2018/02/21 10:28:00.000   4136503.6293     87779.9185   4838110.8979   1   6   0.0010   0.0006   0.0009  -0.0004  -0.0002   0.0006   0.00   33.2
2018/02/21 10:28:30.000   4136503.6292     87779.9185   4838110.8979   1   6   0.0010   0.0006   0.0009  -0.0004  -0.0002   0.0006   0.00   33.6
2018/02/21 10:29:00.000   4136503.6291     87779.9185   4838110.8980   1   6   0.0010   0.0006   0.0009  -0.0004  -0.0002   0.0006   0.00   34.1
2018/02/21 10:29:30.000   4136503.6291     87779.9184   4838110.8980   1   6   0.0010   0.0006   0.0009  -0.0004  -0.0002   0.0006   0.00   34.4
2018/02/21 10:30:00.000   4136503.6291     87779.9184   4838110.8980   1   6   0.0010   0.0006   0.0009  -0.0004  -0.0002   0.0006   0.00   35.8
2018/02/21 10:30:30.000   4136503.6291     87779.9184   4838110.8980   1   6   0.0010   0.0006   0.0009  -0.0004  -0.0002   0.0006   0.00   36.9
2018/02/21 10:31:00.000   4136503.6291     87779.9185   4838110.8980   1   6   0.0010   0.0006   0.0009  -0.0004  -0.0002   0.0006   0.00   37.5
2018/02/21 10:31:30.000   4136503.6287     87779.9255   4838110.8902   2   7   0.0014   0.0034   0.0011   0.0003   0.0003   0.0008   0.00    1.5
2018/02/21 10:32:00.000   4136503.6288     87779.9253   4838110.8902   2   7   0.0014   0.0034   0.0011   0.0003   0.0003   0.0008   0.00    2.0
2018/02/21 10:32:30.000   4136503.6288     87779.9251   4838110.8903   2   7   0.0014   0.0034   0.0011   0.0003   0.0003   0.0008   0.00    2.5
2018/02/21 10:33:00.000   4136503.6289     87779.9185   4838110.8977   1   7   0.0010   0.0005   0.0009  -0.0004  -0.0001   0.0006   0.00    3.1
2018/02/21 10:33:30.000   4136503.6288     87779.9186   4838110.8976   1   7   0.0010   0.0005   0.0009  -0.0004  -0.0001   0.0006   0.00    3.7
2018/02/21 10:34:00.000   4136503.6287     87779.9187   4838110.8974   1   7   0.0010   0.0005   0.0009  -0.0003  -0.0001   0.0006   0.00    4.5
2018/02/21 10:34:30.000   4136503.6287     87779.9188   4838110.8972   1   7   0.0010   0.0005   0.0009  -0.0003  -0.0001   0.0006   0.00    5.4
2018/02/21 10:35:00.000   4136503.6287     87779.9188   4838110.8971   1   7   0.0010   0.0005   0.0009  -0.0003  -0.0001   0.0006   0.00    6.5
2018/02/21 10:35:30.000   4136503.6286     87779.9189   4838110.8970   1   7   0.0009   0.0005   0.0009  -0.0003  -0.0001   0.0006   0.00    7.4
2018/02/21 10:36:00.000   4136503.6286     87779.9190   4838110.8969   1   7   0.0009   0.0005   0.0009  -0.0003  -0.0001   0.0006   0.00    8.5
2018/02/21 10:36:30.000   4136503.6285     87779.9190   4838110.8968   1   7   0.0009   0.0005   0.0009  -0.0003  -0.0001   0.0006   0.00    9.8
2018/02/21 10:37:00.000   4136503.6285     87779.9192   4838110.8966   1   7   0.0009   0.0005   0.0009  -0.0003  -0.0001   0.0006   0.00   11.2
2018/02/21 10:37:30.000   4136503.6284     87779.9192   4838110.8965   1   7   0.0009   0.0005   0.0008  -0.0003  -0.0001   0.0006   0.00   12.5
2018/02/21 10:38:00.000   4136503.6284     87779.9193   4838110.8963   1   7   0.0009   0.0005   0.0008  -0.0003  -0.0001   0.0006   0.00   13.8
2018/02/21 10:38:30.000   4136503.6282     87779.9194   4838110.8962   1   7   0.0009   0.0005   0.0008  -0.0003  -0.0001   0.0006   0.00   15.2
2018/02/21 10:39:00.000   4136503.6280     87779.9195   4838110.8961   1   7   0.0009   0.0005   0.0008  -0.0003  -0.0001   0.0006   0.00   16.5
2018/02/21 10:39:30.000   4136503.6279     87779.9195   4838110.8960   1   7   0.0009   0.0005   0.0008  -0.0003  -0.0001   0.0006   0.00   17.9
2018/02/21 10:40:00.000   4136503.6279     87779.9195   4838110.8959   1   7   0.0009   0.0005   0.0008  -0.0003  -0.0001   0.0006   0.00   19.3
2018/02/21 10:40:30.000   4136503.6279     87779.9195   4838110.8958   1   7   0.0009   0.0005   0.0008  -0.0003  -0.0001   0.0006   0.00   20.2
2018/02/21 10:41:00.000   4136503.6279     87779.9194   4838110.8957   1   7   0.0009   0.0005   0.0008  -0.0003  -0.0001   0.0006   0.00   21.1
2018/02/21 10:41:30.000   4136503.6280     87779.9194   4838110.8957   1   7   0.0009   0.0005   0.0008  -0.0003  -0.0001   0.0006   0.00   22.7
2018/02/21 10:42:00.000   4136503.6280     87779.9194   4838110.8956   1   7   0.0009   0.0005   0.0008  -0.0003  -0.0001   0.0006   0.00   24.1
2018/02/21 10:42:30.000   4136503.6281     87779.9194   4838110.8956   1   7   0.0009   0.0005   0.0008  -0.0003  -0.0001   0.0006   0.00   25.3
2018/02/21 10:43:00.000   4136503.6282     87779.9194   4838110.8955   1   7   0.0009   0.0005   0.0008  -0.0003  -0.0001   0.0006   0.00   26.8
2018/02/21 10:43:30.000   4136503.6283     87779.9194   4838110.8955   1   7   0.0009   0.0005   0.0008  -0.0003  -0.0001   0.0006   0.00   28.4
2018/02/21 10:44:00.000   4136503.6284     87779.9194   4838110.8955   1   7   0.0009   0.0005   0.0008  -0.0003  -0.0001   0.0006   0.00   29.9
2018/02/21 10:44:30.000   4136503.6285     87779.9194   4838110.8954   1   7   0.0009   0.0005   0.0008  -0.0003  -0.0001   0.0006   0.00   31.4
2018/02/21 10:45:00.000   4136503.6284     87779.9194   4838110.8953   1   7   0.0009   0.0005   0.0008  -0.0003  -0.0001   0.0006   0.00   32.8
2018/02/21 10:45:30.000   4136503.6285     87779.9194   4838110.8952   1   7   0.0009   0.0005   0.0008  -0.0003  -0.0001   0.0006   0.00   33.6
2018/02/21 10:46:00.000   4136503.6285     87779.9195   4838110.8951   1   7   0.0009   0.0005   0.0008  -0.0003  -0.0001   0.0006   0.00   35.0
2018/02/21 10:46:30.000   4136503.6285     87779.9195   4838110.8950   1   7   0.0009   0.0005   0.0008  -0.0003  -0.0001   0.0006   0.00   35.6
2018/02/21 10:47:00.000   4136503.6285     87779.9196   4838110.8949   1   7   0.0009   0.0005   0.0008  -0.0003  -0.0001   0.0006   0.00   36.7
2018/02/21 10:47:30.000   4136503.6285     87779.9197   4838110.8949   1   7   0.0009   0.0005   0.0008  -0.0003  -0.0001   0.0006   0.00   37.6
2018/02/21 10:48:00.000   4136503.6286     87779.9197   4838110.8949   1   7   0.0009   0.0005   0.0008  -0.0003  -0.0001   0.0006   0.00   38.4
2018/02/21 10:48:30.000   4136503.6287     87779.9198   4838110.8949   1   7   0.0009   0.0005   0.0008  -0.0003  -0.0001   0.0006   0.00   39.7
2018/02/21 10:49:00.000   4136503.6287     87779.9198   4838110.8948   1   7   0.0009   0.0005   0.0008  -0.0003  -0.0001   0.0006   0.00   41.0
2018/02/21 10:49:30.000   4136503.6287     87779.9199   4838110.8949   1   7   0.0009   0.0005   0.0008  -0.0003  -0.0001   0.0006   0.00   41.9
2018/02/21 10:50:00.000   4136503.6287     87779.9199   4838110.8948   1   7   0.0009   0.0005   0.0008  -0.0003  -0.0000   0.0006   0.00   43.2
2018/02/21 10:50:30.000   4136503.6286     87779.9199   4838110.8948   1   7   0.0009   0.0005   0.0008  -0.0003  -0.0000   0.0006   0.00   44.2
2018/02/21 10:51:00.000   4136503.6284     87779.9199   4838110.8948   1   7   0.0009   0.0005   0.0008  -0.0003  -0.0000   0.0006   0.00   44.6
2018/02/21 10:51:30.000   4136503.6282     87779.9200   4838110.8948   1   7   0.0008   0.0005   0.0008  -0.0003  -0.0000   0.0006   0.00   45.2
2018/02/21 10:52:00.000   4136503.6282     87779.9200   4838110.8948   1   7   0.0008   0.0005   0.0008  -0.0003  -0.0000   0.0006   0.00   46.2
2018/02/21 10:52:30.000   4136503.6281     87779.9200   4838110.8947   1   7   0.0008   0.0005   0.0008  -0.0003  -0.0000   0.0006   0.00   47.9
2018/02/21 10:53:00.000   4136503.6279     87779.9200   4838110.8947   1   7   0.0008   0.0005   0.0008  -0.0003  -0.0000   0.0006   0.00   48.5
2018/02/21 10:53:30.000   4136503.6277     87779.9201   4838110.8947   1   7   0.0008   0.0005   0.0008  -0.0003  -0.0000   0.0006   0.00   50.3
2018/02/21 10:54:00.000   4136503.6274     87779.9202   4838110.8946   1   7   0.0008   0.0005   0.0008  -0.0003   0.0000   0.0006   0.00   52.1
2018/02/21 10:54:30.000   4136503.6271     87779.9203   4838110.8946   1   7   0.0008   0.0005   0.0008  -0.0003   0.0000   0.0006   0.00   54.1
2018/02/21 10:55:00.000   4136503.6269     87779.9204   4838110.8945   1   7   0.0008   0.0005   0.0008  -0.0003   0.0000   0.0006   0.00   56.2
2018/02/21 10:55:30.000   4136503.6267     87779.9205   4838110.8945   1   7   0.0008   0.0005   0.0008  -0.0003   0.0000   0.0006   0.00   58.0
2018/02/21 10:56:00.000   4136503.6265     87779.9207   4838110.8945   1   7   0.0008   0.0005   0.0008  -0.0003   0.0000   0.0006   0.00   59.9
2018/02/21 10:56:30.000   4136503.6264     87779.9208   4838110.8944   1   7   0.0008   0.0005   0.0008  -0.0003   0.0000   0.0006   0.00   61.6
2018/02/21 10:57:00.000   4136503.6263     87779.9209   4838110.8944   1   7   0.0008   0.0005   0.0008  -0.0003   0.0000   0.0006   0.00   63.0
2018/02/21 10:57:30.000   4136503.6263     87779.9210   4838110.8944   1   7   0.0008   0.0005   0.0008  -0.0003   0.0000   0.0006   0.00   63.9
2018/02/21 10:58:00.000   4136503.6262     87779.9210   4838110.8944   1   7   0.0008   0.0005   0.0009  -0.0003   0.0001   0.0006   0.00   64.9
2018/02/21 10:58:30.000   4136503.6261     87779.9212   4838110.8944   1   7   0.0008   0.0005   0.0009  -0.0003   0.0001   0.0006   0.00   66.7
2018/02/21 10:59:00.000   4136503.6262     87779.9213   4838110.8943   1   7   0.0008   0.0005   0.0009  -0.0003   0.0001   0.0006   0.00   69.9
2018/02/21 10:59:30.000   4136503.6262     87779.9213   4838110.8943   1   7   0.0008   0.0005   0.0009  -0.0003   0.0001   0.0006   0.00   71.8
2018/02/21 11:00:00.000   4136503.6260     87779.9215   4838110.8942   1   7   0.0008   0.0005   0.0009  -0.0003   0.0001   0.0006   0.00   72.9
2018/02/21 11:00:30.000   4136503.6259     87779.9216   4838110.8941   1   7   0.0008   0.0005   0.0009  -0.0003   0.0001   0.0006   0.00   72.7
2018/02/21 11:01:00.000   4136503.6258     87779.9218   4838110.8941   1   7   0.0008   0.0005   0.0009  -0.0003   0.0001   0.0006   0.00   73.5
2018/02/21 11:01:30.000   4136503.6258     87779.9219   4838110.8940   1   7   0.0008   0.0005   0.0009  -0.0003   0.0001   0.0006   0.00   73.6
2018/02/21 11:02:00.000   4136503.6257     87779.9220   4838110.8940   1   7   0.0008   0.0005   0.0009  -0.0003   0.0001   0.0006   0.00   72.9
2018/02/21 11:02:30.000   4136503.6257     87779.9221   4838110.8940   1   7   0.0008   0.0005   0.0009  -0.0003   0.0001   0.0006   0.00   74.6
2018/02/21 11:03:00.000   4136503.6258     87779.9221   4838110.8939   1   7   0.0008   0.0005   0.0009  -0.0003   0.0001   0.0006   0.00   75.7
2018/02/21 11:03:30.000   4136503.6258     87779.9222   4838110.8939   1   7   0.0008   0.0005   0.0009  -0.0003   0.0001   0.0006   0.00   77.4
2018/02/21 11:04:00.000   4136503.6259     87779.9223   4838110.8938   1   7   0.0008   0.0005   0.0009  -0.0003   0.0001   0.0006   0.00   80.7
2018/02/21 11:04:30.000   4136503.6260     87779.9223   4838110.8937   1   7   0.0008   0.0005   0.0009  -0.0003   0.0001   0.0006   0.00   84.0
2018/02/21 11:05:00.000   4136503.6262     87779.9224   4838110.8937   1   7   0.0008   0.0005   0.0009  -0.0002   0.0001   0.0006   0.00   87.3
2018/02/21 11:05:30.000   4136503.6264     87779.9224   4838110.8936   1   7   0.0008   0.0005   0.0009  -0.0002   0.0001   0.0006   0.00   89.0
2018/02/21 11:06:00.000   4136503.6265     87779.9224   4838110.8936   1   7   0.0008   0.0005   0.0009  -0.0002   0.0001   0.0006   0.00   91.4
2018/02/21 11:06:30.000   4136503.6266     87779.9224   4838110.8935   1   7   0.0008   0.0005   0.0009  -0.0002   0.0001   0.0006   0.00   93.2
2018/02/21 11:07:00.000   4136503.6266     87779.9225   4838110.8935   1   7   0.0008   0.0005   0.0009  -0.0002   0.0001   0.0006   0.00   94.9
2018/02/21 11:07:30.000   4136503.6265     87779.9225   4838110.8934   1   7   0.0008   0.0005   0.0009  -0.0002   0.0001   0.0006   0.00   97.7
2018/02/21 11:08:00.000   4136503.6264     87779.9226   4838110.8934   1   7   0.0008   0.0005   0.0009  -0.0002   0.0001   0.0006   0.00   98.8
2018/02/21 11:08:30.000   4136503.6263     87779.9227   4838110.8933   1   7   0.0008   0.0005   0.0009  -0.0002   0.0001   0.0006   0.00  102.3
2018/02/21 11:09:00.000   4136503.6261     87779.9228   4838110.8933   1   7   0.0008   0.0005   0.0009  -0.0002   0.0001   0.0006   0.00  105.0
2018/02/21 11:09:30.000   4136503.6260     87779.9229   4838110.8932   1   7   0.0008   0.0005   0.0009  -0.0002   0.0001   0.0006   0.00  107.0
2018/02/21 11:10:00.000   4136503.6259     87779.9229   4838110.8932   1   7   0.0008   0.0005   0.0009  -0.0002   0.0001   0.0006   0.00  109.6
2018/02/21 11:10:30.000   4136503.6257     87779.9230   4838110.8932   1   7   0.0008   0.0005   0.0009  -0.0002   0.0001   0.0006   0.00  113.4
2018/02/21 11:11:00.000   4136503.6255     87779.9230   4838110.8932   1   7   0.0008   0.0005   0.0009  -0.0002   0.0001   0.0006   0.00  115.5
2018/02/21 11:11:30.000   4136503.6253     87779.9231   4838110.8932   1   7   0.0008   0.0005   0.0009  -0.0002   0.0001   0.0006   0.00  117.7
2018/02/21 11:12:00.000   4136503.6251     87779.9231   4838110.8932   1   7   0.0008   0.0005   0.0009  -0.0002   0.0001   0.0006   0.00  118.9
2018/02/21 11:12:30.000   4136503.6248     87779.9232   4838110.8933   1   7   0.0008   0.0005   0.0009  -0.0002   0.0001   0.0006   0.00  119.2
2018/02/21 11:13:00.000   4136503.6245     87779.9233   4838110.8934   1   7   0.0008   0.0005   0.0009  -0.0002   0.0001   0.0006   0.00  117.8
2018/02/21 11:13:30.000   4136503.6242     87779.9233   4838110.8934   1   7   0.0008   0.0005   0.0009  -0.0002   0.0001   0.0006   0.00  115.0
2018/02/21 11:14:00.000   4136503.6240     87779.9234   4838110.8934   1   7   0.0008   0.0005   0.0009  -0.0002   0.0001   0.0006   0.00  114.7
2018/02/21 11:14:30.000   4136503.6238     87779.9234   4838110.8934   1   7   0.0008   0.0005   0.0009  -0.0002   0.0001   0.0006   0.00  113.2
2018/02/21 11:15:00.000   4136503.6235     87779.9234   4838110.8935   1   7   0.0008   0.0005   0.0009  -0.0002   0.0001   0.0006   0.00  112.7
2018/02/21 11:15:30.000   4136503.6233     87779.9235   4838110.8935   1   7   0.0008   0.0004   0.0009  -0.0002   0.0001   0.0006   0.00  112.8
2018/02/21 11:16:00.000   4136503.6233     87779.9235   4838110.8935   1   7   0.0008   0.0004   0.0009  -0.0002   0.0001   0.0006   0.00  116.6
2018/02/21 11:16:30.000   4136503.6233     87779.9235   4838110.8934   1   7   0.0008   0.0004   0.0009  -0.0002   0.0001   0.0006   0.00  121.6
2018/02/21 11:17:00.000   4136503.6234     87779.9235   4838110.8933   1   7   0.0008   0.0004   0.0009  -0.0002   0.0001   0.0006   0.00  127.0
2018/02/21 11:17:30.000   4136503.6235     87779.9234   4838110.8933   1   7   0.0008   0.0004   0.0009  -0.0002   0.0001   0.0006   0.00  132.1
2018/02/21 11:18:00.000   4136503.6234     87779.9234   4838110.8933   1   7   0.0008   0.0004   0.0009  -0.0002   0.0001   0.0006   0.00  132.8
2018/02/21 11:18:30.000   4136503.6234     87779.9234   4838110.8933   1   7   0.0008   0.0004   0.0009  -0.0002   0.0001   0.0006   0.00  133.0
2018/02/21 11:19:00.000   4136503.6233     87779.9235   4838110.8933   1   7   0.0008   0.0004   0.0009  -0.0002   0.0001   0.0006   0.00  133.6
2018/02/21 11:19:30.000   4136503.6232     87779.9235   4838110.8933   1   7   0.0008   0.0004   0.0009  -0.0002   0.0001   0.0006   0.00  134.5
2018/02/21 11:20:00.000   4136503.6232     87779.9236   4838110.8933   1   7   0.0008   0.0004   0.0009  -0.0002   0.0001   0.0006   0.00  136.5
2018/02/21 11:20:30.000   4136503.6231     87779.9237   4838110.8932   1   7   0.0008   0.0004   0.0009  -0.0002   0.0001   0.0006   0.00  139.7
2018/02/21 11:21:00.000   4136503.6231     87779.9237   4838110.8932   1   7   0.0008   0.0004   0.0009  -0.0002   0.0001   0.0006   0.00  143.3
2018/02/21 11:21:30.000   4136503.6229     87779.9238   4838110.8932   1   7   0.0008   0.0004   0.0009  -0.0002   0.0001   0.0006   0.00  144.2
2018/02/21 11:22:00.000   4136503.6228     87779.9238   4838110.8932   1   7   0.0008   0.0004   0.0009  -0.0002   0.0001   0.0006   0.00  143.6
2018/02/21 11:22:30.000   4136503.6226     87779.9239   4838110.8932   1   7   0.0008   0.0004   0.0009  -0.0002   0.0001   0.0006   0.00  143.3
